[
  {
    "id": 1,
    "name": "สถานีบริการก๊าซธรรมชาติ ปตท. สาขากำแพงเพชร 2",
    "address": "75/5 ริมถนนกำแพงเพชร 2 แขวงจตุจักร เขตจตุจักร กรุงเทพฯ 10900",
    "dcode": "1030",
    "dname": "จตุจักร",
    "tel": "0 2537 5745",
    "type": "NGV",
    "lat": 13.80357274,
    "lng": 100.5479824
  },
  {
    "id": 2,
    "name": "สถานีบริการก๊าซธรรมชาติ ปตท.สาขาประชาราษฎร์",
    "address": "2716 ถ.ประชาราษฎร์(กรุงเทพ-นนทบุรี) แขวงบางซื่อ เขตบางซื่อ กรุงเทพฯ 10800",
    "dcode": "1029",
    "dname": "บางซื่อ",
    "tel": "0 2537 5418",
    "type": "NGV",
    "lat": 13.83091981,
    "lng": 100.5257864
  },
  {
    "id": 3,
    "name": "สถานีบริการก๊าซธรรมชาติ ปตท. สาขาพัฒนาการ",
    "address": "2992 ถ.พัฒนาการ แขวงสวนหลวง เขตสวนหลวง กรุงเทพฯ 10250",
    "dcode": "1034",
    "dname": "สวนหลวง",
    "tel": "0 2537 5418",
    "type": "NGV",
    "lat": 13.73147352,
    "lng": 100.6502056
  },
  {
    "id": 4,
    "name": "สถานีบริการก๊าซธรรมชาติ ปตท. สาขาจงเจริญยิ่งยืนนาน",
    "address": "191 ม.3แขวงบางบอน เขตบางบอน กรุงเทพฯ",
    "dcode": "1050",
    "dname": "บางบอน",
    "tel": "0 2537 5745",
    "type": "NGV",
    "lat": 13.63703095,
    "lng": 100.369859
  },
  {
    "id": 5,
    "name": "สถานีบริการก๊าชธรรมชาติหลัก ปตท. สาขานิมิตใหม่",
    "address": "71 ม.2 ถนนนิมิตรใหม่ แขวงสามวาตะวันออก เขตคลองสามวา กรุงเทพฯ 10510",
    "dcode": "1046",
    "dname": "คลองสามวา",
    "tel": "0 2537 5745",
    "type": "NGV",
    "lat": 13.90078319,
    "lng": 100.7356141
  },
  {
    "id": 6,
    "name": "สถานีบริการก๊าซธรรมชาติ ปตท. สาขาคลังพระโขนง",
    "address": "555 ถ.อาจณรงค์ แขวงคลองเตย เขตคลองเตย กรุงเทพฯ 10110",
    "dcode": "1033",
    "dname": "คลองเตย",
    "tel": "0 2537 5745",
    "type": "NGV",
    "lat": 13.6983513,
    "lng": 100.5872481
  },
  {
    "id": 7,
    "name": "สถานีบริการก๊าซธรรมชาติ ปตท. สาขาเทคโนปิโตรเลียม",
    "address": "288/75 ม.2 ถ.พุทธบุชา แขวงบางมด เขตทุ่งครุ กรุงเทพฯ 10140",
    "dcode": "1049",
    "dname": "ทุ่งครุ",
    "tel": "0 2537 5745",
    "type": "NGV",
    "lat": 13.65124025,
    "lng": 100.483352
  },
  {
    "id": 8,
    "name": "สถานีบริการก๊าซธรรมชาติ ปตท. สาขาเพ็ชรประคอง",
    "address": "74/4 ม.6 ซ.จรัญสนิทวงศ์13 แขวงบางแวก เขตภาษีเจริญ กรุงเทพฯ 10160",
    "dcode": "1022",
    "dname": "ภาษีเจริญ",
    "tel": "0 2537 5745",
    "type": "NGV",
    "lat": 13.73682731,
    "lng": 100.4389209
  },
  {
    "id": 9,
    "name": "สถานีบริการก๊าซธรรมชาติ ปตท. สาขาส.เจริญสมบัติปิโตรเลียม",
    "address": "53/3 ม.10 ถ.กาญจนาภิเษก แขวงบางไผ่ เขตบางแค กรุงเทพฯ 10160",
    "dcode": "1040",
    "dname": "บางแค",
    "tel": "0 2537 5418",
    "type": "NGV",
    "lat": 13.73869413,
    "lng": 100.4067615
  },
  {
    "id": 10,
    "name": "สถานีบริการก๊าซธรรมชาติ ปตท. สาขาลิ้มเพชรเกษม",
    "address": "100/85 ม.10 แขวงบางแค เขตบางแค กรุงเทพฯ 10160",
    "dcode": "1040",
    "dname": "บางแค",
    "tel": "0 2537 5706",
    "type": "NGV",
    "lat": 13.70844514,
    "lng": 100.3846866
  },
  {
    "id": 11,
    "name": "สถานีบริการก๊าซธรรมชาติ ปตท. สาขาพงษ์สถาพรปิโตรเลียม",
    "address": "34/45 ม.1 ถ.สุขาภิบาล1 แขวงบางแค เขตบางแค กรุงเทพฯ 10160",
    "dcode": "1040",
    "dname": "บางแค",
    "tel": "0 2537 5745",
    "type": "NGV",
    "lat": 13.69908937,
    "lng": 100.4212631
  },
  {
    "id": 12,
    "name": "สถานีบริการก๊าซธรรมชาติ ปตท. สาขาเพ็ชรทวีโชค",
    "address": "25 ม.9 ถ.ปิ่นเกล้า-นครชัยศรี แขวงศาลาธรรมสพน์ เขตทวีวัฒนา กรุงเทพฯ 10170",
    "dcode": "1048",
    "dname": "ทวีวัฒนา",
    "tel": "0 2537 5418",
    "type": "NGV",
    "lat": 13.78888654,
    "lng": 100.3430287
  },
  {
    "id": 13,
    "name": "สถานีบริการก๊าซธรรมชาติ ปตท. สาขาราชพฤกษ์ปิโตรเลียม",
    "address": "31/12 ม.13 ถ.ราชพฤกษ์ แขวงบางระมาด เขตตลิ่งชัน กรุงเทพฯ 10170",
    "dcode": "1019",
    "dname": "ตลิ่งชัน",
    "tel": "0 2537 5418",
    "type": "NGV",
    "lat": 13.76161008,
    "lng": 100.4442234
  },
  {
    "id": 14,
    "name": "สถานีบริการก๊าซธรรมชาติ ปตท. สาขา SUSCO ราชพฤกษ์",
    "address": "32/6 ม.13 ถ.ราชพฤกษ์ แขวงบางระมาด เขตตลิ่งชัน กรุงเทพฯ 10170",
    "dcode": "1019",
    "dname": "ตลิ่งชัน",
    "tel": "0 2537 5745",
    "type": "NGV",
    "lat": 13.76237126,
    "lng": 100.4454488
  },
  {
    "id": 15,
    "name": "สถานีบริการก๊าซธรรมชาติ ปตท. สาขายูกี้เวิลด์ แก๊ส สเตชั่น",
    "address": "37/51 ถ.จรัญสนิทวงศ์ แขวงท่าพระ เขตบางกอกใหญ่ กรุงเทพฯ 10600",
    "dcode": "1016",
    "dname": "บางกอกใหญ่",
    "tel": "0 2537 5418",
    "type": "NGV",
    "lat": 13.73521947,
    "lng": 100.4709146
  },
  {
    "id": 16,
    "name": "สถานีบริการก๊าซธรรมชาติ ปตท. สาขาประชาอุทิศปิโตรเลียม",
    "address": "2/103 ม.2 ถ.ประชาอุทิศ แขวงทุ่งครู เขตทุ่งครุ กรุงเทพฯ 10160",
    "dcode": "1049",
    "dname": "ทุ่งครุ",
    "tel": "0 2537 5418",
    "type": "NGV",
    "lat": 13.62712947,
    "lng": 100.504792
  },
  {
    "id": 17,
    "name": "สถานีบริการก๊าซธรรมชาติ ปตท. สาขาประสิทธิ์เรืองรองลักขณา",
    "address": "381 ถ.พระยาสุเรนทร์ แขวงบางชัน เขตคลองสามวา กรุงเทพฯ 10510",
    "dcode": "1046",
    "dname": "คลองสามวา",
    "tel": "0 2537 5745",
    "type": "NGV",
    "lat": 13.82386471,
    "lng": 100.6997102
  },
  {
    "id": 18,
    "name": "สถานีบริการก๊าซธรรมชาติ ปตท. สาขาเบสท์ เอ็นเนอร์ยี่ พลัส สาขาที่ 00029",
    "address": "127/184 ม.2 ถ.สายไหม แขวงสายไหม เขตสายไหม กรุงเทพฯ 10220",
    "dcode": "1042",
    "dname": "สายไหม",
    "tel": "0 2537 5745",
    "type": "NGV",
    "lat": 13.92097086,
    "lng": 100.6662542
  },
  {
    "id": 19,
    "name": "สถานีบริการก๊าซธรรมชาติ ปตท. สาขาโปร-เทค (ประเทศไทย)",
    "address": "38/1 ถ.เทียมร่วมมิตร แขวงห้วยขวาง เขตห้วยขวาง กรุงเทพฯ 10310",
    "dcode": "1017",
    "dname": "ห้วยขวาง",
    "tel": "0 2537 5745",
    "type": "NGV",
    "lat": 13.76709416,
    "lng": 100.5773164
  },
  {
    "id": 20,
    "name": "สถานีบริการก๊าซธรรมชาติ ปตท. สาขาเอ็นจีวี โปร",
    "address": "133/2 ถ.ร่มเกล้า แขวงคลองสามประเวศ เขตลาดกระบัง กรุงเทพฯ 10520",
    "dcode": "1011",
    "dname": "ลาดกระบัง",
    "tel": "0 2537 5745",
    "type": "NGV",
    "lat": 13.75346603,
    "lng": 100.7471072
  },
  {
    "id": 21,
    "name": "สถานีบริการก๊าซธรรมชาติ ปตท. สาขาบางจาก ลาดพร้าว 98/1",
    "address": "2222/1 ถ.ลาดพร้าว แขวงวังทองหลาง เขตวังทองหลาง กรุงเทพฯ 10310",
    "dcode": "1045",
    "dname": "วังทองหลาง",
    "tel": "0 2537 5418",
    "type": "NGV",
    "lat": 13.78373745,
    "lng": 100.6132003
  },
  {
    "id": 22,
    "name": "สถานีบริการก๊าซธรรมชาติ ปตท. สาขาบางจาก นวลจันทร์",
    "address": "132/1ม.12 แขวงคลองกุ่ม เขตบึงกุ่ม กรุงเทพฯ 10130",
    "dcode": "1027",
    "dname": "บึงกุ่ม",
    "tel": "0 2537 5745",
    "type": "NGV",
    "lat": 13.83551979,
    "lng": 100.636645
  },
  {
    "id": 23,
    "name": "สถานีบริการก๊าซธรรมชาติ ปตท. สาขาปิโตรเลียมน้ำมัน (รามอินทรา)",
    "address": "60/16 ม.4 แขวงอนุสาวรีย์ เขตบางเขน กรุงเทพฯ 10220",
    "dcode": "1005",
    "dname": "บางเขน",
    "tel": "0 2537 5745",
    "type": "NGV",
    "lat": 13.8595586,
    "lng": 100.6223815
  },
  {
    "id": 24,
    "name": "สถานีบริการก๊าซธรรมชาติ ปตท. สาขา ศูนย์รักษาความปลอดภัย กองบัญชาการทหารสูงสุด",
    "address": "17/298 ม.4 แขวงอนุสาวรีย์ เขตบางเขน กรุงเทพฯ 10220",
    "dcode": "1005",
    "dname": "บางเขน",
    "tel": "0 2537 5745",
    "type": "NGV",
    "lat": 13.8666401,
    "lng": 100.6094509
  },
  {
    "id": 25,
    "name": "สถานีบริการก๊าซธรรมชาติ ปตท. สาขากำแพงเพชรปิโตรเลียม",
    "address": "75/5 ถ.กำแพงเพชร 2 แขวงจตุจักร เขตจตุจักร กรุงเทพฯ 10900",
    "dcode": "1030",
    "dname": "จตุจักร",
    "tel": "0 2537 5745",
    "type": "NGV",
    "lat": 13.82630812,
    "lng": 100.5505561
  },
  {
    "id": 26,
    "name": "สถานีบริการก๊าซธรรมชาติ ปตท. สาขาสายไหมเอนเนอจี",
    "address": "881/1 ม.2 ถ.สายไหม แขวงสายไหม เขตสายไหม กรุงเทพฯ 10220",
    "dcode": "1042",
    "dname": "สายไหม",
    "tel": "0 2537 5418",
    "type": "NGV",
    "lat": 13.92171209,
    "lng": 100.6409327
  },
  {
    "id": 27,
    "name": "สถานีบริการก๊าซธรรมชาติ ปตท. สาขาถนนอำนวยสงคราม",
    "address": "195/7 ถ.อำนวยสงคราม แขวงถนนนครไชยศรี เขตดุสิต กรุงเทพฯ 10300",
    "dcode": "1002",
    "dname": "ดุสิต",
    "tel": "0 2537 5418",
    "type": "NGV",
    "lat": 13.78622699,
    "lng": 100.520372
  },
  {
    "id": 28,
    "name": "สถานีบริการก๊าซธรรมชาติ ปตท. สาขาสำนักงานปลัดกระทรวงกลาโหม (ทางด่วนบางนา ขาเข้า)",
    "address": "110 ซ.สุขุมวิท 64 แขวงบางจาก เขตพระโขนง กรุงเทพฯ 10260",
    "dcode": "1009",
    "dname": "พระโขนง",
    "tel": "0 2537 5418",
    "type": "NGV",
    "lat": 13.68628074,
    "lng": 100.6018011
  },
  {
    "id": 29,
    "name": "สถานีบริการก๊าซธรรมชาติ ปตท. สาขารวยเป๋าตุงปิโตรเลียม",
    "address": "27 ถ.พหลโยธิน แขวงสีกัน เขตดอนเมือง กรุงเทพฯ",
    "dcode": "1036",
    "dname": "ดอนเมือง",
    "tel": "0 2537 2000",
    "type": "NGV",
    "lat": 13.94297192,
    "lng": 100.6233051
  },
  {
    "id": 30,
    "name": "สถานีบริการก๊าซธรรมชาติ ปตท. สาขาไทยพลอิสระ ๑",
    "address": "74/25 ถ.นางลิ้นจี่ แขวงทุ่งมหาเมฆ เขตสาทร กรุงเทพฯ 10120",
    "dcode": "1028",
    "dname": "สาทร",
    "tel": "0 2537 5418",
    "type": "NGV",
    "lat": 13.70926457,
    "lng": 100.5410478
  },
  {
    "id": 31,
    "name": "สถานีบริการก๊าซธรรมชาติ ปตท. สาขาสวัสดิการกรมขนส่งทหารอากาศ 2",
    "address": "171/3584 หมู่ 2 ถ.สะพานใหม่ คลองถนน เขตสายไหม กรุงเทพฯ 10160",
    "dcode": "1042",
    "dname": "สายไหม",
    "tel": "0 2537 5418",
    "type": "NGV",
    "lat": 13.90133119,
    "lng": 100.6122256
  },
  {
    "id": 32,
    "name": "สถานีบริการก๊าซธรรมชาติ ปตท. สาขาสวัสดิการกรมขนส่งทหารอากาศ 1",
    "address": "ภายในกรมขนส่งทหารอากาศ กองบัญชาการสนับสนุนทหารอากาศ แขวงคลองถนน เขตดอนเมือง กรุงเทพฯ 10220",
    "dcode": "1036",
    "dname": "ดอนเมือง",
    "tel": "0 2537 5418",
    "type": "NGV",
    "lat": 13.8968351,
    "lng": 100.6059397
  },
  {
    "id": 33,
    "name": "สถานีบริการก๊าซธรรมชาติ ปตท. สาขาสำนักงานหน่วยทหารพัฒนา (นาวง)",
    "address": "559 ม.3 ถ.นาวงประชาพัฒนา แขวงสีกัน เขตดอนเมือง กรุงเทพฯ 10210",
    "dcode": "1036",
    "dname": "ดอนเมือง",
    "tel": "0 2537 5418",
    "type": "NGV",
    "lat": 13.93853649,
    "lng": 100.5691358
  },
  {
    "id": 34,
    "name": "สถานีบริการก๊าชธรรมชาติ ปตท. สาขา ขสมก. บางเขน",
    "address": "249/30 ม.6 แขวงอนุสาวรีย์ เขตบางเขน กรุงเทพฯ 10220",
    "dcode": "1005",
    "dname": "บางเขน",
    "tel": "0 2537 5745",
    "type": "NGV",
    "lat": 13.8698116,
    "lng": 100.5916726
  },
  {
    "id": 35,
    "name": "สถานีบริการก๊าซธรรมชาติ ปตท. สาขาปิโตรเลียมแก๊ส (ลาดปลาเค้า)",
    "address": "36/23 ม.5 แขวงอนุสาวรีย์ เขตบางเขน กรุงเทพฯ 10220",
    "dcode": "1005",
    "dname": "บางเขน",
    "tel": "0 2537 5745",
    "type": "LPG",
    "lat": 13.85025675,
    "lng": 100.6046756
  },
  {
    "id": 36,
    "name": "สถานีบริการก๊าซธรรมชาติ ปตท. สาขากรมยุทธบริการทหาร",
    "address": "2218/20 ถ.กรุงเทพ-นนทบุรี แขวงบางซื่อ เขตบางซื่อ กรุงเทพฯ 10800",
    "dcode": "1029",
    "dname": "บางซื่อ",
    "tel": "0 2537 5745",
    "type": "NGV",
    "lat": 13.82679487,
    "lng": 100.5306252
  },
  {
    "id": 37,
    "name": "สถานีบริการก๊าซธรรมชาติ ปตท. สาขาบดีศร ออยล์ เซอร์วิส",
    "address": "240/5 ถ.ฉลองกรุง แขวงลำปลาทิว เขตลาดกระบัง กรุงเทพฯ10520",
    "dcode": "1011",
    "dname": "ลาดกระบัง",
    "tel": "0 2537 5745",
    "type": "NGV",
    "lat": 13.75513117,
    "lng": 100.7970963
  },
  {
    "id": 38,
    "name": "สถานีบริการก๊าซธรรมชาติ ปตท. สาขาทองคำทิพย์",
    "address": "99/100 ม.4 ถ.พระรามที่ 2 ซอย 92 แขวงแสมดำ เขตบางขุนเทียน กรุงเทพฯ 10150",
    "dcode": "1021",
    "dname": "บางขุนเทียน",
    "tel": "0 2537 5745",
    "type": "NGV",
    "lat": 13.62348748,
    "lng": 100.3896992
  },
  {
    "id": 39,
    "name": "สถานีบริการก๊าซธรรมชาติ ปตท. สาขาสิริเจริญวัฒนา",
    "address": "89 ม.8 ถ.บรมราชชนนี แขวงฉิมพลี เขตตลิ่งชัน กรุงเทพฯ 10170",
    "dcode": "1019",
    "dname": "ตลิ่งชัน",
    "tel": "0 2537 5745",
    "type": "NGV",
    "lat": 13.78076486,
    "lng": 100.4240862
  },
  {
    "id": 40,
    "name": "สถานีบริการก๊าซธรรมชาติ ปตท. สาขาพี บี แก๊ส",
    "address": "86 ม.9 ถนนฉลองกรุง แขวงลำผักชี เขตหนองจอก กรุงเทพฯ 10530",
    "dcode": "1003",
    "dname": "หนองจอก",
    "tel": "0 2537 5745",
    "type": "NGV",
    "lat": 13.80161363,
    "lng": 100.8339166
  },
  {
    "id": 41,
    "name": "สถานีบริการก๊าซธรรมชาติ ปตท. สาขาศรีเจริญภัณฑ์",
    "address": "1093 ถนนวิภาวดีรังสิต แขวงลาดยาว เขตจตุจักร กรุงเทพฯ 10900",
    "dcode": "1030",
    "dname": "จตุจักร",
    "tel": "0 2537 5745",
    "type": "NGV",
    "lat": 13.82563256,
    "lng": 100.5587379
  },
  {
    "id": 42,
    "name": "สถานีบริการก๊าซธรรมชาติ ปตท. สาขาบุตรสี่",
    "address": "58/9 ซอยลาดพร้าว 71 แขวงวังทองหลาง เขตวังทองหลาง กรุงเทพฯ 10310",
    "dcode": "1045",
    "dname": "วังทองหลาง",
    "tel": "0 2537 5418",
    "type": "NGV",
    "lat": 13.79098051,
    "lng": 100.6086258
  },
  {
    "id": 43,
    "name": "สถานีบริการก๊าซธรรมชาติ บริษัท ทรัพย์ไพศาลเซอร์วิส จำกัด",
    "address": "82/23 หมู่ 19 ถ.พุทธมณฑลสาย 2 แขวงศาลาธรรมสพน์ เขตทวีวัฒนา กรุงเทพฯ",
    "dcode": "1048",
    "dname": "ทวีวัฒนา",
    "tel": "-",
    "type": "NGV",
    "lat": 13.77981464,
    "lng": 100.3942808
  },
  {
    "id": 44,
    "name": "สถานีบริการ LPG บริษัท ธนดีชูโชค จำกัด",
    "address": "175 ถนนสมเด็จเจ้าพระยา แขวงสมเด็จเจ้าพระยา เขตคลองสาน กรุงเทพฯ 10600",
    "dcode": "1018",
    "dname": "คลองสาน",
    "tel": "0 2437 3779",
    "type": "LPG",
    "lat": 13.73291502,
    "lng": 100.500841
  },
  {
    "id": 45,
    "name": "สถานีบริการ LPG บริษัท มงคลคาร์แก๊ส จำกัด",
    "address": "81 ถ.กรุงธนบุรี แขวงคลองต้นไทร เขตคลองสาน กรุงเทพฯ 10600",
    "dcode": "1018",
    "dname": "คลองสาน",
    "tel": "0 2438 1281",
    "type": "LPG",
    "lat": 13.7214537,
    "lng": 100.5007311
  },
  {
    "id": 46,
    "name": "สถานีบริการ LPG หจก. พี.ที แก๊ส",
    "address": "343 ถนนสมเด็จเจ้าพระยา แขวงสมเด็จเจ้าพระยา เขตคลองสาน กรุงเทพฯ 10600",
    "dcode": "1018",
    "dname": "คลองสาน",
    "tel": "0 2929 1782",
    "type": "LPG",
    "lat": 13.73207519,
    "lng": 100.5036744
  },
  {
    "id": 47,
    "name": "สถานีบริการ LPG บริษัท เอ็นเอสแก๊สแอลพีจิ จำกัด",
    "address": "745 ถ.รามอินทรา 107 แขวงคันนายาว เขตคันนายาว กรุงเทพฯ 10230",
    "dcode": "1043",
    "dname": "คันนายาว",
    "tel": "0 2262 8170",
    "type": "LPG",
    "lat": 13.81308612,
    "lng": 100.6951463
  },
  {
    "id": 48,
    "name": "สถานีบริการ LPG บริษัท สิริทรัพย์ รามอินทรา เซอร์วิส จำกัด",
    "address": "627/1 ถ.รามอินทรา แขวงคันนายาว เขตคันนายาว กรุงเทพฯ 10230",
    "dcode": "1043",
    "dname": "คันนายาว",
    "tel": "-",
    "type": "LPG",
    "lat": 13.82427536,
    "lng": 100.6794568
  },
  {
    "id": 49,
    "name": "สถานีบริการ LPG บริษัท ณ สยามมีดี จำกัด",
    "address": "101 ถนนข้อมูล แขวงคันนายาว เขตคันนายาว กรุงเทพฯ 10230",
    "dcode": "1043",
    "dname": "คันนายาว",
    "tel": "-",
    "type": "LPG",
    "lat": 13.79450296,
    "lng": 100.6885475
  },
  {
    "id": 50,
    "name": "สถานีบริการ LPG บริษัท วิภาแก๊ส จำกัด",
    "address": "24/1 ถนนวิภาวดีรังสิต ซอยยาสูบ 1 แขวงลาดยาว เขตจตุจักร กรุงเทพฯ 10900",
    "dcode": "1030",
    "dname": "จตุจักร",
    "tel": "-",
    "type": "LPG",
    "lat": 13.80202494,
    "lng": 100.5597464
  },
  {
    "id": 51,
    "name": "สถานีบริการ LPG บริษัท เอสเอสจี คอร์ปอเรชั่น จำกัด",
    "address": "88 ถ.กำแพงเพชร 2 แขวงจตุจักร เขตจตุจักร กรุงเทพฯ 10900",
    "dcode": "1030",
    "dname": "จตุจักร",
    "tel": "-",
    "type": "LPG",
    "lat": 13.81459199,
    "lng": 100.5464735
  },
  {
    "id": 52,
    "name": "สถานีบริการก๊าซธรรมชาติ ปตท. สาขาสมภพเซอร์วิส",
    "address": "298 ถ.วุฒากาศ แขวงตลาดพลู เขตธนบุรี กรุงเทพฯ 10600",
    "dcode": "1015",
    "dname": "ธนบุรี",
    "tel": "0 2537 5745",
    "type": "NGV",
    "lat": 13.71096292,
    "lng": 100.4699776
  },
  {
    "id": 53,
    "name": "สถานีบริการ LPG บริษัท วังวิจิจรปิโตรเลียม จำกัด",
    "address": "8/3 ถ.เอกชัย ซ.กำนันแม้น แขวงบางขุนเทียน เขตจอมทอง กรุงเทพฯ 10150",
    "dcode": "1035",
    "dname": "จอมทอง",
    "tel": "0 2413 0575",
    "type": "LPG",
    "lat": 13.69700518,
    "lng": 100.4362283
  },
  {
    "id": 54,
    "name": "สถานีบริการ LPG หจก.วีรา",
    "address": "139/39 ถ.วุฒากาศ แขวงบางค้อ เขตจอมทอง กรุงเทพฯ 10150",
    "dcode": "1035",
    "dname": "จอมทอง",
    "tel": "0 2803 7262",
    "type": "LPG",
    "lat": 13.70085819,
    "lng": 100.4682043
  },
  {
    "id": 55,
    "name": "สถานีบริการ LPG บริษัท วงศ์วิภาวัน จำกัด",
    "address": "26/78 ม.10 ถ.เอกชัย แขวงบางขุนเทียน เขตจอมทอง กรุงเทพฯ 10150",
    "dcode": "1035",
    "dname": "จอมทอง",
    "tel": "-",
    "type": "LPG",
    "lat": 13.69442406,
    "lng": 100.4571533
  },
  {
    "id": 56,
    "name": "สถานีบริการ LPG บริษัท โชคมงคล คาร์แก๊ส จำกัด",
    "address": "30/123 ม.1 ถ.พุทธบูชา แขวงบางมด เขตจอมทอง กรุงเทพฯ 10150",
    "dcode": "1035",
    "dname": "จอมทอง",
    "tel": "0 2438 1281",
    "type": "LPG",
    "lat": 13.6747987,
    "lng": 100.4709824
  },
  {
    "id": 57,
    "name": "สถานีบริการ LPG บริษัท สายไหมคาร์แก๊ส จำกัด",
    "address": "511/19 ถ.วิภาวดีรังสิต แขวงสีกัน เขตดอนเมือง กรุงเทพฯ 10210",
    "dcode": "1036",
    "dname": "ดอนเมือง",
    "tel": "0 2438 1281",
    "type": "LPG",
    "lat": 13.94604155,
    "lng": 100.6156915
  },
  {
    "id": 58,
    "name": "สถานีบริการ LPG บริษัท สมบูรณ์สินปิโตรเลียม จำกัด",
    "address": "250 ถนนสุทธิสาร แขวงดินแดง เขตดินแดง กรุงเทพฯ 10400",
    "dcode": "1026",
    "dname": "ดินแดง",
    "tel": "0 2691 8362",
    "type": "LPG",
    "lat": 13.78241765,
    "lng": 100.5670703
  },
  {
    "id": 59,
    "name": "สถานีบริการ LPG บริษัท ทวีทรัพย์แก๊ส จำกัด",
    "address": "72/1 ถนนสุทธิสาร ซอยอินทามระ 44 แขวงดินแดง เขตดินแดง กรุงเทพฯ 10400",
    "dcode": "1026",
    "dname": "ดินแดง",
    "tel": "0 2276 7154",
    "type": "LPG",
    "lat": 13.78244727,
    "lng": 100.5652578
  },
  {
    "id": 60,
    "name": "สถานีบริการ LPG บริษัท ชัยพฤกษ์ปิโตรเลียม จำกัด",
    "address": "53/2 ม.6 ถ.บรมราชชนนี แขวงตลิ่งชัน เขตตลิ่งชัน กรุงเทพฯ 10170",
    "dcode": "1019",
    "dname": "ตลิ่งชัน",
    "tel": "-",
    "type": "LPG",
    "lat": 13.78584735,
    "lng": 100.4607058
  },
  {
    "id": 61,
    "name": "สถานีบริการ LPG บริษัท บุญถนอมปิโตรเลียม จำกัด",
    "address": "67 ม.6 ถ.บรมราชชนนี แขวงตลิ่งชัน เขตตลิ่งชัน กรุงเทพฯ 10170",
    "dcode": "1019",
    "dname": "ตลิ่งชัน",
    "tel": "-",
    "type": "LPG",
    "lat": 13.78382532,
    "lng": 100.4541266
  },
  {
    "id": 62,
    "name": "สถานีบริการก๊าซธรรมชาติ ปตท. สาขาSUSCO ประชาอุทิศ",
    "address": "188/8 ม.2 ถ.ประชาอุทิศ แขวงทุ่งครุ เขตทุ่งครุ กรุงเทพฯ 10140",
    "dcode": "1049",
    "dname": "ทุ่งครุ",
    "tel": "0 2537 5745",
    "type": "NGV",
    "lat": 13.62510217,
    "lng": 100.5081804
  },
  {
    "id": 63,
    "name": "สถานีบริการ LPG บริษัท เทอดไทปิโตรเลียม จำกัด",
    "address": "228 ถ.อินทรพิทักษ์ แขวงหิรัญรูจี เขตธนบุรี กรุงเทพฯ 10600",
    "dcode": "1015",
    "dname": "ธนบุรี",
    "tel": "-",
    "type": "LPG",
    "lat": 13.72716484,
    "lng": 100.48908
  },
  {
    "id": 64,
    "name": "สถานีบริการ LPG บริษัท บางขุนเทียนปิโตรเลียม จำกัด",
    "address": "988/1 ถ.สมเด็จพระเจ้าตากสิน แขวงดาวคนอง เขตธนบุรี กรุงเทพฯ 10600",
    "dcode": "1015",
    "dname": "ธนบุรี",
    "tel": "-",
    "type": "LPG",
    "lat": 13.70040506,
    "lng": 100.4835489
  },
  {
    "id": 65,
    "name": "สถานีบริการ LPG บริษัท พรเจริญแก๊ส จำกัด",
    "address": "210 ถ.เทอดไท แขวงบางยี่เรือ เขตธนบุรี กรุงเทพฯ 10600",
    "dcode": "1015",
    "dname": "ธนบุรี",
    "tel": "-",
    "type": "LPG",
    "lat": 13.7242418,
    "lng": 100.4851226
  },
  {
    "id": 66,
    "name": "สถานีบริการ LPG บริษัท ซี พี แก๊ส จำกัด",
    "address": "1090/28 ถ.พรานนก แขวงบ้านช่างหล่อ เขตบางกอกน้อย กรุงเทพฯ 10700",
    "dcode": "1020",
    "dname": "บางกอกน้อย",
    "tel": "-",
    "type": "LPG",
    "lat": 13.75532498,
    "lng": 100.472159
  },
  {
    "id": 67,
    "name": "สถานีบริการ LPG บริษัท อิสรภาพคาร์แก๊ส จำกัด",
    "address": "240/2 ถ.อิสรภาพ แขวงวัดอรุณ เขตบางกอกใหญ่ กรุงเทพฯ 10600",
    "dcode": "1016",
    "dname": "บางกอกใหญ่",
    "tel": "-",
    "type": "LPG",
    "lat": 13.73913997,
    "lng": 100.4849389
  },
  {
    "id": 68,
    "name": "สถานีบริการ LPG นายสมประสงค์ ศรีประภา",
    "address": "79/100 ม.4 ถ.พระรามที่ 2 แขวงแสมดำ เขตบางขุนเทียน กรุงเทพฯ 10150",
    "dcode": "1021",
    "dname": "บางขุนเทียน",
    "tel": "-",
    "type": "LPG",
    "lat": 13.6300759,
    "lng": 100.3980564
  },
  {
    "id": 69,
    "name": "สถานีบริการ LPG หจก.เอส.แอล.คาร์แคร์",
    "address": "1622 ถ.อ่อนนุช แขวงสวนหลวง เขตสวนหลวง กรุงเทพฯ 10250",
    "dcode": "1034",
    "dname": "สวนหลวง",
    "tel": "0 2321 4163",
    "type": "LPG",
    "lat": 13.71007868,
    "lng": 100.6338585
  },
  {
    "id": 70,
    "name": "สถานีบริการ LPG บริษัท เจริญราษบูรณะ จำกัด",
    "address": "329 ม.10 ถ.ราษฎร์บูรณะ แขวงบางปะกอก เขตราษฎร์บูรณะ กรุงเทพฯ 10140",
    "dcode": "1024",
    "dname": "ราษฎร์บูรณะ",
    "tel": "0 2428 8780",
    "type": "LPG",
    "lat": 13.68208596,
    "lng": 100.500888
  },
  {
    "id": 71,
    "name": "สถานีบริการ LPG บริษัท ราษฎร์บูรณะบริการ จำกัด",
    "address": "183/1 ม.1 ถ.ราษฎร์บูรณะ แขวงบางปะกอก เขตราษฎร์บูรณะ กรุงเทพฯ 10140",
    "dcode": "1024",
    "dname": "ราษฎร์บูรณะ",
    "tel": "-",
    "type": "LPG",
    "lat": 13.69080683,
    "lng": 100.4877784
  },
  {
    "id": 72,
    "name": "สถานีบริการ LPG หจก.วีตระการวิจิตรแก๊ส",
    "address": "100 ม.8 ถ.สุขสวัสดิ์ แขวงราษฎร์บูรณะ เขตราษฎร์บูรณะ กรุงเทพฯ 10140",
    "dcode": "1024",
    "dname": "ราษฎร์บูรณะ",
    "tel": "-",
    "type": "LPG",
    "lat": 13.67351944,
    "lng": 100.5063711
  },
  {
    "id": 73,
    "name": "สถานีบริการ LPG บริษัท เอเชีย นวลจันทร์ จำกัด",
    "address": "16/14 ม.11 ถ.นวลจันทร์ แขวงคลองกุ่ม เขตบึงกุ่ม กรุงเทพฯ 10240",
    "dcode": "1027",
    "dname": "บึงกุ่ม",
    "tel": "0 2944 5911",
    "type": "LPG",
    "lat": 13.82923906,
    "lng": 100.6391633
  },
  {
    "id": 74,
    "name": "สถานีบริการ LPG หจก.ชัยพัฒนาแก๊ส",
    "address": "303 หมู่ 4 ถ.เพชรเกษม แขวงบางแค เขตบางแค กรุงเทพฯ 10160",
    "dcode": "1040",
    "dname": "บางแค",
    "tel": "-",
    "type": "LPG",
    "lat": 13.71058272,
    "lng": 100.4127056
  },
  {
    "id": 75,
    "name": "สถานีบริการ LPG บริษัท เอส.วี.พี.กัลปพฤกษ์ปิโตรเลียม จำกัด",
    "address": "81/2 หมู่ 9 ถ.กัลปพฤกษ์ แขวงบางแค เขตบางแค กรุงเทพฯ 10160",
    "dcode": "1040",
    "dname": "บางแค",
    "tel": "-",
    "type": "LPG",
    "lat": 13.68493241,
    "lng": 100.4213907
  },
  {
    "id": 76,
    "name": "สถานีบริการ LPG หจก.วัฒนา ออโต้แก๊ส",
    "address": "110/3 ถ.จรัลสนิทวงศ์ แขวงบ้านช่างหล่อ เขตบางกอกน้อย กรุงเทพฯ 10700",
    "dcode": "1020",
    "dname": "บางกอกน้อย",
    "tel": "-",
    "type": "LPG",
    "lat": 13.74477632,
    "lng": 100.4705673
  },
  {
    "id": 77,
    "name": "สถานีบริการ LPG บริษัท พรจันทร์บริการ จำกัด",
    "address": "92 หมู่ 6 ถ.พหลโยธิน แขวงอนุสาวรีย์ เขตบางเขน กรุงเทพฯ 10220",
    "dcode": "1005",
    "dname": "บางเขน",
    "tel": "-",
    "type": "LPG",
    "lat": 13.86445411,
    "lng": 100.5898783
  },
  {
    "id": 78,
    "name": "สถานีบริการ LPG บริษัท ส.เจริญรุ่งบริการ จำกัด",
    "address": "342/174 ม.7 ถ.พหลโยธิน แขวงอนุสาวรีย์ เขตบางเขน กรุงเทพฯ 10220",
    "dcode": "1005",
    "dname": "บางเขน",
    "tel": "-",
    "type": "LPG",
    "lat": 13.89134078,
    "lng": 100.6057353
  },
  {
    "id": 79,
    "name": "สถานีบริการ LPG หจก.มอเตอร์คาร์แก๊ส",
    "address": "1231 ถ.กรุงเทพ-นนทบุรี แขวงบางซื่อ เขตบางซื่อ กรุงเทพฯ 10800",
    "dcode": "1029",
    "dname": "บางซื่อ",
    "tel": "-",
    "type": "LPG",
    "lat": 13.8273104,
    "lng": 100.52913
  },
  {
    "id": 80,
    "name": "สถานีบริการ LPG บริษัท อำนาจชัยบริการ จำกัด",
    "address": "876 ถ.กรุงเทพ-นนทบุรี แขวงบางซื่อ เขตบางซื่อ กรุงเทพฯ 10800",
    "dcode": "1029",
    "dname": "บางซื่อ",
    "tel": "-",
    "type": "LPG",
    "lat": 13.8126224,
    "lng": 100.5319016
  },
  {
    "id": 81,
    "name": "สถานีบริการ LPG บริษัท เตาปูนคาร์แก๊ส จำกัด",
    "address": "703/2 ถ.กรุงเทพ-นนทบุรี แขวงบางซื่อ เขตบางซื่อ กรุงเทพฯ 10800",
    "dcode": "1029",
    "dname": "บางซื่อ",
    "tel": "-",
    "type": "LPG",
    "lat": 13.8161303,
    "lng": 100.531795
  },
  {
    "id": 82,
    "name": "สถานีบริการ LPG บริษัท ประชาราษฎร์ปิโตรเลียม จำกัด",
    "address": "166 ถ.ประชาราษฎร์สาย 2 แขวงบางซื่อ เขตบางซื่อ กรุงเทพฯ 10800",
    "dcode": "1029",
    "dname": "บางซื่อ",
    "tel": "-",
    "type": "LPG",
    "lat": 13.80614121,
    "lng": 100.5246447
  },
  {
    "id": 83,
    "name": "สถานีบริการ LPG บริษัท เบญจพรปิโตรเลียม จำกัด",
    "address": "47/1 ม.15 ถ.สุขุมวิท(ซ.อุดมสุข) แขวงบางนา เขตบางนา กรุงเทพฯ 10260",
    "dcode": "1047",
    "dname": "บางนา",
    "tel": "-",
    "type": "LPG",
    "lat": 13.67845787,
    "lng": 100.6135713
  },
  {
    "id": 84,
    "name": "สถานีบริการ LPG บริษัท สยามบางจาก ปิโตเลียม จำกัด",
    "address": "3129 ถ.สุขุมวิท แขวงบางนา เขตบางนา กรุงเทพฯ 10260",
    "dcode": "1047",
    "dname": "บางนา",
    "tel": "-",
    "type": "LPG",
    "lat": 13.68270726,
    "lng": 100.6106329
  },
  {
    "id": 85,
    "name": "สถานีบริการ LPG บริษัท เอส.วี พี ปิโตรเลียม อินเตอร์เนชั่นแนล จำกัด",
    "address": "141/12 ถ.เอกชัย แขวงบางบอน เขตบอนบอน กรุงเทพฯ 10150",
    "dcode": "1050",
    "dname": "บางบอน",
    "tel": "-",
    "type": "LPG",
    "lat": 13.64394761,
    "lng": 100.3778299
  },
  {
    "id": 86,
    "name": "สถานีบริการ LPG บริษัท ปิโตรเลียมไทยคอร์ปอเรชั่น จำกัด",
    "address": "743/11 ถ.จรัลสนิทวงศ์ แขวงบางบำหรุ เขตบางพลัด กรุงเทพฯ 10700",
    "dcode": "1025",
    "dname": "บางพลัด",
    "tel": "-",
    "type": "LPG",
    "lat": 13.78342791,
    "lng": 100.4918127
  },
  {
    "id": 87,
    "name": "สถานีบริการ LPG บริษัท กรุงธน แก๊ส แอนด์ ออยล์ จำกัด",
    "address": "245/1 ถ.ราชวิถี แขวงบางพลัด เขตบางพลัด กรุงเทพฯ 10700",
    "dcode": "1025",
    "dname": "บางพลัด",
    "tel": "-",
    "type": "LPG",
    "lat": 13.78321671,
    "lng": 100.4983039
  },
  {
    "id": 88,
    "name": "สถานีบริการก๊าซธรรมชาติ ปตท. สาขาSUSCO นวลจันทร์",
    "address": "51/192 ม.12 ถ.นวลจันทร์ แขวงคลองกุ่ม เขตบึงกุ่ม กรุงเทพฯ 10230",
    "dcode": "1027",
    "dname": "บึงกุ่ม",
    "tel": "0 2537 5745",
    "type": "NGV",
    "lat": 13.8384633,
    "lng": 100.6344085
  },
  {
    "id": 89,
    "name": "สถานีบริการ LPG บริษัท สยามแก๊ส แอนด์ ปิโตรเคมีคัลส์ จำกัด",
    "address": "612/2 ถ.บรมราชชนนี แขวงบางบำหรุ เขตบางพลัด กรุงเทพฯ 10700",
    "dcode": "1025",
    "dname": "บางพลัด",
    "tel": "-",
    "type": "LPG",
    "lat": 13.78051499,
    "lng": 100.4756924
  },
  {
    "id": 90,
    "name": "สถานีบริการ LPG บริษัท ธนาวรรณคาร์แก๊ส จำกัด",
    "address": "27/151 ถ.นวมินทร์ แขวงคลองกุ่ม เขตบึงกุ่ม กรุงเทพฯ 10240",
    "dcode": "1027",
    "dname": "บึงกุ่ม",
    "tel": "-",
    "type": "LPG",
    "lat": 13.81170196,
    "lng": 100.6502229
  },
  {
    "id": 91,
    "name": "สถานีบริการ LPG บริษัท เบญจพรปิโตรเลียม จำกัด",
    "address": "57/35 ถ.เสรีไทย ซอยสุขาภิบาล 2 แขวงคลองกุ่ม เขตบึงกุ่ม กรุงเทพฯ 10240",
    "dcode": "1027",
    "dname": "บึงกุ่ม",
    "tel": "-",
    "type": "LPG",
    "lat": 13.7797806,
    "lng": 100.6684387
  },
  {
    "id": 92,
    "name": "สถานีบริการ LPG บริษัท พี.เอส.เค ปิโตรเลียม จำกัด",
    "address": "129 ม.12 ถ.นวลจันทร์ (รามอินทรา 40) แขวงคลองกุ่ม เขตบึงกุ่ม กรุงเทพฯ 10240",
    "dcode": "1027",
    "dname": "บึงกุ่ม",
    "tel": "-",
    "type": "LPG",
    "lat": 13.83923051,
    "lng": 100.638632
  },
  {
    "id": 93,
    "name": "สถานีบริการ LPG บริษัท จรัสเมืองบริการ จำกัด",
    "address": "14/121 ถ.จรัสเมือง แขวงรองเมือง เขตปทุมวัน กรุงเทพฯ 10240",
    "dcode": "1007",
    "dname": "ปทุมวัน",
    "tel": "-",
    "type": "LPG",
    "lat": 13.74315131,
    "lng": 100.5194371
  },
  {
    "id": 94,
    "name": "สถานีบริการ LPG บมจ.สยามแก็ส แอนด์ ปิโตรเคมีคัลส์",
    "address": "1756 ถ.กรุงเกษม แขวงป้อมปราบ เขตป้อมปราบศรัตรูพ่าย กรุงเทพฯ 10100",
    "dcode": "1008",
    "dname": "ป้อมปราบศัตรูพ่าย",
    "tel": "-",
    "type": "LPG",
    "lat": 13.73992309,
    "lng": 100.5152183
  },
  {
    "id": 95,
    "name": "สถานีบริการ LPG บริษัท วี พี แก๊ส จำกัด",
    "address": "229 ถนนสามเสน แขวงวัดสามพระยา เขตพระนคร กรุงเทพฯ 10200",
    "dcode": "1001",
    "dname": "พระนคร  ",
    "tel": "-",
    "type": "LPG",
    "lat": 13.76621847,
    "lng": 100.5004706
  },
  {
    "id": 96,
    "name": "สถานีบริการ LPG บริษัท ซุปเปอร์แจ๊ค จำกัด",
    "address": "276 ม.5 ถ.ร่มเกล้า แขวงมีนบุรี เขตมีนบุรี กรุงเทพฯ 10510",
    "dcode": "1010",
    "dname": "มีนบุรี",
    "tel": "-",
    "type": "LPG",
    "lat": 13.78700644,
    "lng": 100.7459969
  },
  {
    "id": 97,
    "name": "สถานีบริการ LPG บริษัท ชูแผน พลัส จำกัด",
    "address": "897/2 ถ.พระราม 3 แขวงบางโพงพาง เขตยานนาวา กรุงเทพฯ 10120",
    "dcode": "1012",
    "dname": "ยานนาวา",
    "tel": "-",
    "type": "LPG",
    "lat": 13.6740037,
    "lng": 100.5422696
  },
  {
    "id": 98,
    "name": "สถานีบริการ LPG บริษัท พี แอนด์ แอล ปิโตรเลียม จำกัด",
    "address": "560/1 ถ.สาธุประดิษฐ์ แขวงบางโพงพาง เขตยานนาวา กรุงเทพฯ 10120",
    "dcode": "1012",
    "dname": "ยานนาวา",
    "tel": "-",
    "type": "LPG",
    "lat": 13.69005787,
    "lng": 100.5334806
  },
  {
    "id": 99,
    "name": "สถานีบริการ LPG บริษัท เอส.ที.ออยล์ไทยโฮลดิ้ง จำกัด (สาขา1)",
    "address": "99/1 ถ.นางลิ้นจี่ แขวงช่องนนทรี เขตยานนาวา กรุงเทพฯ 10120",
    "dcode": "1012",
    "dname": "ยานนาวา",
    "tel": "-",
    "type": "LPG",
    "lat": 13.70863753,
    "lng": 100.5430315
  },
  {
    "id": 100,
    "name": "สถานีบริการ LPG หจก. วัฒนาออโต้แก๊ส",
    "address": "197/4 ถ.สาธุประดิษฐ์ แขวงช่องนนทรี เขตยานนาวา กรุงเทพฯ 10120",
    "dcode": "1012",
    "dname": "ยานนาวา",
    "tel": "-",
    "type": "LPG",
    "lat": 13.70164629,
    "lng": 100.5305603
  },
  {
    "id": 101,
    "name": "สถานีบริการ LPG บริษัท เค.จี เทรดดิ้ง แอนด์เซอร์วิส จำกัด",
    "address": "838/1 ถ.ลาดกระบัง แขวงลาดกระบัง เขตลาดกระบัง กรุงเทพฯ 10520",
    "dcode": "1011",
    "dname": "ลาดกระบัง",
    "tel": "-",
    "type": "LPG",
    "lat": 13.71897967,
    "lng": 100.7400935
  },
  {
    "id": 102,
    "name": "สถานีบริการ LPG บริษัท วังทองปิโตรเลียม จำกัด",
    "address": "10/10 ม.11 ถ.สุขาภิบาล1 แขวงลาดพร้าว เขตลาดพร้าว กรุงเทพฯ 10230",
    "dcode": "1038",
    "dname": "ลาดพร้าว",
    "tel": "-",
    "type": "LPG",
    "lat": 13.82973301,
    "lng": 100.5916218
  },
  {
    "id": 103,
    "name": "สถานีบริการ LPG บริษัท พีเอ็นแอล กีส จำกัด",
    "address": "858 ถ.สุขุมวิท 71 แขวงคลองตันเหนือ เขตวัฒนา กรุงเทพฯ 10110",
    "dcode": "1039",
    "dname": "วัฒนา",
    "tel": "-",
    "type": "LPG",
    "lat": 13.72989157,
    "lng": 100.596623
  },
  {
    "id": 104,
    "name": "สถานีบริการ LPG บริษัท สตาร์แก๊ส จำกัด",
    "address": "315/3 ม.6 ถ.พหลโยธิน แขวงสายไหม เขตสายไหม กรุงเทพฯ 10220",
    "dcode": "1042",
    "dname": "สายไหม",
    "tel": "-",
    "type": "LPG",
    "lat": 13.93564616,
    "lng": 100.6253083
  },
  {
    "id": 105,
    "name": "สถานีบริการ LPG บริษัท เสนานิคมบริการ จำกัด",
    "address": "832/1 พหลโยธิน 32 แขวงลาดพร้าว เขตจตุจักร กรุงเทพฯ 10900",
    "dcode": "1030",
    "dname": "จตุจักร",
    "tel": "0 2941 8593",
    "type": "LPG",
    "lat": 13.83422032,
    "lng": 100.5826333
  },
  {
    "id": 106,
    "name": "สถานีบริการ LPG บริษัท สมภพแก๊ส จำกัด",
    "address": "23 ถ.วุฒากาศ แขวงบางค้อ เขตจอมทอง กรุงเทพฯ 10150",
    "dcode": "1035",
    "dname": "จอมทอง",
    "tel": "0 2468 6314",
    "type": "LPG",
    "lat": 13.70756857,
    "lng": 100.4692168
  },
  {
    "id": 107,
    "name": "สถานีบริการ LPG หจก. คณาพงศ์เซอร์วิส",
    "address": "21 ถ.สมเด็จพระเจ้าตากสิน แขวงบุคคโล เขตธนบุรี กรุงเทพฯ 10600",
    "dcode": "1015",
    "dname": "ธนบุรี",
    "tel": "0 2438 2100",
    "type": "LPG",
    "lat": 13.71965919,
    "lng": 100.4910575
  },
  {
    "id": 108,
    "name": "สถานีบริการ LPG หจก.รัชดาตากสินเซอร์วิส",
    "address": "112 ถ.รัชดา(ตากสิน-ท่าพระ) แขวงบุคคโล เขตธนบุรี กรุงเทพฯ 10600",
    "dcode": "1015",
    "dname": "ธนบุรี",
    "tel": "-",
    "type": "LPG",
    "lat": 13.71102749,
    "lng": 100.478854
  },
  {
    "id": 109,
    "name": "สถานีบริการ LPG บริษัท ที-เอ ฟาสต์ จำกัด",
    "address": "9/11 ม.5 ถ.พระราม 2 แขวงแสมดำ เขตบางขุนเทียน กรุงเทพฯ 10150",
    "dcode": "1021",
    "dname": "บางขุนเทียน",
    "tel": "0 2895 9107",
    "type": "LPG",
    "lat": 13.64627187,
    "lng": 100.4146238
  },
  {
    "id": 110,
    "name": "สถานีบริการก๊าซธรรมชาติ ปตท. สาขาSUSCO บางบำหรุ",
    "address": "896/1 ม.1 ถ.บรมราชชนนี แขวงบางบำหรุ เขตบางพลัด กรุงเทพฯ 10700",
    "dcode": "1025",
    "dname": "บางพลัด",
    "tel": "0 2537 5745",
    "type": "NGV",
    "lat": 13.78529595,
    "lng": 100.47132
  },
  {
    "id": 111,
    "name": "สถานีบริการ LPG หจก. ซี.เอส ปิโตรเลียม",
    "address": "505/30 ถ.แฉล้มนิมิตรฝั่งซ้าย แขวงบางโคล่ เขตบางคอแหลม กรุงเทพฯ 10120",
    "dcode": "1031",
    "dname": "บางคอแหลม",
    "tel": "0 2291 5442",
    "type": "LPG",
    "lat": 13.69355026,
    "lng": 100.50795
  },
  {
    "id": 112,
    "name": "สถานีบริการ LPG หจก.ถาวรเจริญปิโตรเลียม",
    "address": "111/87 ม.2 ถ.สุขาภิบาล1 แขวงบางแค เขตบางแค กรุงเทพฯ 10160",
    "dcode": "1040",
    "dname": "บางแค",
    "tel": "0 2802 6474",
    "type": "LPG",
    "lat": 13.69978897,
    "lng": 100.4206478
  },
  {
    "id": 113,
    "name": "สถานีบริการ LPG บมจ.สยามแก๊ส แอนด์ ปิโตเคมีคัลส์",
    "address": "34/97 ม.2 ถ.สุขาภิบาล1 แขวงบางแค เขตบางแค กรุงเทพฯ 10160",
    "dcode": "1040",
    "dname": "บางแค",
    "tel": "0 2806 8531",
    "type": "LPG",
    "lat": 13.70016692,
    "lng": 100.420946
  },
  {
    "id": 114,
    "name": "สถานีบริการ LPG บริษัท เลิศนวลจันทร์ 44 จำกัด",
    "address": "135 ถ.รามอินทรา ซอย 40 แขวงคลองกุ่ม เขตบึงกุ่ม กรุงเทพฯ 10240",
    "dcode": "1027",
    "dname": "บึงกุ่ม",
    "tel": "-",
    "type": "LPG",
    "lat": 13.84474327,
    "lng": 100.6468573
  },
  {
    "id": 115,
    "name": "สถานีบริการ LPG หจก. ส.เจริญทรัพย์บริการ (2005)",
    "address": "637 ถ.อ่อนนุช แขวงประเวศ เขตประเวศ กรุงเทพฯ 10250",
    "dcode": "1032",
    "dname": "ประเวศ",
    "tel": "0 2948 0473",
    "type": "LPG",
    "lat": 13.72143265,
    "lng": 100.6927571
  },
  {
    "id": 116,
    "name": "สถานีบริการ LPG หจก.ชอุ่มนิวัฒน์บริการ",
    "address": "42/21 ถ.สุขุมวิท 103 แขวงหนองบอน เขตประเวศ กรุงเทพฯ 10250",
    "dcode": "1032",
    "dname": "ประเวศ",
    "tel": "-",
    "type": "LPG",
    "lat": 13.67688451,
    "lng": 100.6507027
  },
  {
    "id": 117,
    "name": "สถานีบริการ LPG บริษัท ขวัญดาวปิโตรเลียม จำกัด",
    "address": "7 ถ.พระสุเมรุ แขวงบวรนิเวศน์ เขตพระนคร กรุงเทพฯ 10200",
    "dcode": "1001",
    "dname": "พระนคร  ",
    "tel": "0 2282 4825",
    "type": "LPG",
    "lat": 13.76360208,
    "lng": 100.4966715
  },
  {
    "id": 118,
    "name": "สถานีบริการก๊าซธรรมชาติ ปตท. สาขาบางจาก ราษฎร์พัฒนา",
    "address": "58/1 ถ.ราษฎร์พัฒนา แขวงสะพานสูง เขตสะพานสูง กรุงเทพฯ 10240",
    "dcode": "1044",
    "dname": "สะพานสูง",
    "tel": "0 2537 5418",
    "type": "NGV",
    "lat": 13.78079996,
    "lng": 100.7056405
  },
  {
    "id": 119,
    "name": "สถานีบริการ LPG หจก. เอ็นเอส แก๊ส แอลพีจี",
    "address": "127 ถ.รามคำแหง แขวงแสนแสบ เขตมีนบุรี กรุงเทพฯ 10510",
    "dcode": "1010",
    "dname": "มีนบุรี",
    "tel": "-",
    "type": "LPG",
    "lat": 13.81404874,
    "lng": 100.7384383
  },
  {
    "id": 120,
    "name": "สถานีบริการ LPG บริษัท เอ็นเอส แก๊ส แอลพีจี จำกัด",
    "address": "402 ถนนนิมิตรใหม่ แขวงทรายกองดิน เขตคลองสามวา กรุงเทพฯ 10510",
    "dcode": "1046",
    "dname": "คลองสามวา",
    "tel": "-",
    "type": "LPG",
    "lat": 13.84628212,
    "lng": 100.7342746
  },
  {
    "id": 121,
    "name": "สถานีบริการ LPG บมจ.สยามแก๊ส แอนด์ปิโตรเคมีคัลส์",
    "address": "429 ถ.บางนา-ตราด แขวงบางนา เขตบางนา กรุงเทพฯ 10260",
    "dcode": "1047",
    "dname": "บางนา",
    "tel": "-",
    "type": "LPG",
    "lat": 13.66960455,
    "lng": 100.6280236
  },
  {
    "id": 122,
    "name": "สถานีบริการ LPG บริษัท เอ็น เอสแก๊ส แอลพีจี จำกัด",
    "address": "896 พระราม 9 แขวงสวนหลวง เขตสวนหลวง กรุงเทพฯ 10250",
    "dcode": "1034",
    "dname": "สวนหลวง",
    "tel": "-",
    "type": "LPG",
    "lat": 13.74082091,
    "lng": 100.6268868
  },
  {
    "id": 123,
    "name": "สถานีบริการ LPG บริษัท พีพีที แก๊ส จำกัด",
    "address": "80/1 ถ.พระราม 9 แขวงบางกระปิ เขตห้วยขวาง กรุงเทพฯ 10310",
    "dcode": "1017",
    "dname": "ห้วยขวาง",
    "tel": "0 2246 4912",
    "type": "LPG",
    "lat": 13.75568373,
    "lng": 100.5678817
  },
  {
    "id": 124,
    "name": "สถานีบริการก๊าซธรรมชาติ บริษัท วิภาวดี เอนเนอจี จำกัด",
    "address": "199/99 ถ.วิภาวดีรังสิต แขวงสามเสนใน เขตพญาไท กรุงเทพฯ 10400",
    "dcode": "1014",
    "dname": "พญาไท",
    "tel": "0 2537 5418",
    "type": "NGV",
    "lat": 13.7859014,
    "lng": 100.5593803
  },
  {
    "id": 125,
    "name": "สถานีบริการ LPG บริษัท 8 ธันวา จำกัด",
    "address": "1016 ถ.รามคำแหง แขวงหัวหมาก เขตบางกะปิ กรุงเทพฯ 10240",
    "dcode": "1006",
    "dname": "บางกะปิ",
    "tel": "0 2370 1194",
    "type": "LPG",
    "lat": 13.7688626,
    "lng": 100.6602975
  },
  {
    "id": 126,
    "name": "สถานีบริการ LPG บริษัท กิจสมรบริการ จำกัด",
    "address": "99/91 ถ.บางกะดี่ แขวงแสมดำ เขตบางขุนเทียน กรุงเทพฯ 10150",
    "dcode": "1021",
    "dname": "บางขุนเทียน",
    "tel": "0 2896 4860",
    "type": "LPG",
    "lat": 13.62069416,
    "lng": 100.4009774
  },
  {
    "id": 127,
    "name": "สถานีบริการ LPG หจก. เอ เจ แก๊ส",
    "address": "4/290 ม.7 ถ.พระรามที่ 2 แขวงแสมดำ เขตบางขุนเทียน กรุงเทพฯ 10150",
    "dcode": "1021",
    "dname": "บางขุนเทียน",
    "tel": "-",
    "type": "LPG",
    "lat": 13.66494069,
    "lng": 100.4425787
  },
  {
    "id": 128,
    "name": "สถานีบริการ LPG หจก.พิชัยบรรทัดทองบริการ",
    "address": "181 ถ.พระรามที่ 6 แขวงเพชรบุรี เขตราชเทวี กรุงเทพฯ 10400",
    "dcode": "1037",
    "dname": "ราชเทวี",
    "tel": "0 2215 1257",
    "type": "LPG",
    "lat": 13.75216152,
    "lng": 100.525617
  },
  {
    "id": 129,
    "name": "สถานีบริการ LPG บริษัท เพชรบุรีเอ็นเนอยี่ จำกัด",
    "address": "1933/1 ถ.เพชรบุรีตัดใหม่ แขวงบางกะปิ เขตห้วยขวาง กรุงเทพฯ 10310",
    "dcode": "1017",
    "dname": "ห้วยขวาง",
    "tel": "0 2318 4915",
    "type": "LPG",
    "lat": 13.7480702,
    "lng": 100.5711229
  },
  {
    "id": 130,
    "name": "สถานีบริการ LPG หจก.ลาดพร้าวบริการ",
    "address": "631/11 ถ.ลาดพร้าว แขวงลาดพร้าว เขตจตุจักร กรุงเทพฯ 10900",
    "dcode": "1030",
    "dname": "จตุจักร",
    "tel": "-",
    "type": "LPG",
    "lat": 13.80236743,
    "lng": 100.5797082
  },
  {
    "id": 131,
    "name": "สถานีบริการ LPG บริษัท ปิโตรเลียมไทยคอร์ปอเรชั่น จำกัด",
    "address": "585 ถ.ประชาอุทิศ แขวงวังทองหลาง เขตวังทองหลาง กรุงเทพฯ 10310",
    "dcode": "1045",
    "dname": "วังทองหลาง",
    "tel": "-",
    "type": "LPG",
    "lat": 13.76688233,
    "lng": 100.6003415
  },
  {
    "id": 132,
    "name": "สถานีบริการ LPG บจม.สยามแก๊ส แอนด์ ปิโตรเคมีคัลส์",
    "address": "1557/1 ถ.เจริญนคร แขวงบางลำภูล่าง เขตคลองสาน กรุงเทพฯ 10600",
    "dcode": "1018",
    "dname": "คลองสาน",
    "tel": "-",
    "type": "LPG",
    "lat": 13.7115737,
    "lng": 100.5007146
  },
  {
    "id": 133,
    "name": "สถานีบริการก๊าซธรรมชาติ ปตท. สาขาเอ็ม.เอส.ปิโตรเลียม",
    "address": "9/33 ม.7 ถ.พุทธมณฑลสาย 3 แขวงหนองค้างพลู เขตหนองแขม กรุงเทพฯ 10160",
    "dcode": "1023",
    "dname": "หนองแขม",
    "tel": "0 2537 5418",
    "type": "NGV",
    "lat": 13.71270291,
    "lng": 100.3635467
  },
  {
    "id": 134,
    "name": "สถานีบริการ LPG บริษัท ดาวกิตติบริการ จำกัด",
    "address": "505 ถ.ราชวิถี แขวงพญาไท เขตราชเทวี กรุงเทพฯ 10400",
    "dcode": "1037",
    "dname": "ราชเทวี",
    "tel": "0 2246 3353",
    "type": "LPG",
    "lat": 13.76336605,
    "lng": 100.5422615
  },
  {
    "id": 135,
    "name": "สถานีบริการ LPG หจก.นิวสามารถเซอร์วิส",
    "address": "144 ถ.พัฒนาการ แขวงสวนหลวง เขตสวนหลวง กรุงเทพฯ 10250",
    "dcode": "1034",
    "dname": "สวนหลวง",
    "tel": "0 2318 9058",
    "type": "LPG",
    "lat": 13.73374485,
    "lng": 100.6073563
  },
  {
    "id": 136,
    "name": "สถานีบริการ LPG บริษัท เอ็น เอส แก๊ส แอลพีจี จำกัด",
    "address": "876/3 ถ.ทางหลวงแพ่ง แขวงทับยาว เขตลาดกระบัง กรุงเทพฯ 10520",
    "dcode": "1011",
    "dname": "ลาดกระบัง",
    "tel": "-",
    "type": "LPG",
    "lat": 13.71148231,
    "lng": 100.8173235
  },
  {
    "id": 137,
    "name": "สถานีบริการ LPG หจก.พี.ที.แก๊ส",
    "address": "41/1 ม.13 ถ.ราชพฤกษ แขวงตลิ่งชัน เขตตลิ่งชัน กรุงเทพฯ 10170",
    "dcode": "1019",
    "dname": "ตลิ่งชัน",
    "tel": "-",
    "type": "LPG",
    "lat": 13.78889221,
    "lng": 100.4471934
  },
  {
    "id": 138,
    "name": "สถานีบริการ LPG บมจ.สยามแก๊ส แอนด์ ปิโตรเคมีคัลส์",
    "address": "29/43 ม.11 ถนนบรมราชชนนี แขวงศาลาธรรมสพน์ เขตทวีวัฒนา กรุงเทพฯ 10170",
    "dcode": "1048",
    "dname": "ทวีวัฒนา",
    "tel": "-",
    "type": "LPG",
    "lat": 13.78579707,
    "lng": 100.3769649
  },
  {
    "id": 139,
    "name": "สถานีบริการ LPG บริษัท เอ็นเอสแก๊ส แอลพีจี จำกัด",
    "address": "94/4 ถ.ฉลองกรุง แขวงลำผักชี เขตหนองจอก กรุงเทพฯ 10530",
    "dcode": "1003",
    "dname": "หนองจอก",
    "tel": "-",
    "type": "LPG",
    "lat": 13.80188619,
    "lng": 100.834936
  },
  {
    "id": 140,
    "name": "สถานีบริการ LPG บริษัท ปิโตเลียมแก๊ส (ลาดปลาเค้า) จำกัด",
    "address": "57/9 ม.5 ถ.ลาดปลาเค้า แขวงอนุสาวรีย์ เขตบางเขน กรุงเทพฯ 10220",
    "dcode": "1005",
    "dname": "บางเขน",
    "tel": "-",
    "type": "LPG",
    "lat": 13.85003061,
    "lng": 100.6047018
  },
  {
    "id": 141,
    "name": "สถานีบริการ LPG บริษัท เอ็นเอสแก๊สแอลพีจี จำกัด",
    "address": "825 ถนนสรงประภา แขวงสีกัน ดอนเมือง กรุงเทพฯ 10210",
    "dcode": "1036",
    "dname": "ดอนเมือง",
    "tel": "0 2537 2392",
    "type": "LPG",
    "lat": 13.93330821,
    "lng": 100.5655006
  },
  {
    "id": 142,
    "name": "สถานีบริการ LPG บริษัท สยามเอ็น เอส ปิโตรเลียม จำกัด",
    "address": "59/37 ม.5 ถนนพระราม 2 แขวงแสมดำ เขตบางขุนเทียน กรุงเทพฯ 10150",
    "dcode": "1021",
    "dname": "บางขุนเทียน",
    "tel": "0 2897 1984",
    "type": "LPG",
    "lat": 13.6376623,
    "lng": 100.4057175
  },
  {
    "id": 143,
    "name": "สถานีบริการก๊าซธรรมชาติ ปตท. สาขาPTTRM เอกชัย",
    "address": "900/1 ถนนเอกชัย แขวงบางบอน เขตบางบอน กรุงเทพฯ 10150",
    "dcode": "1050",
    "dname": "บางบอน",
    "tel": "0 2537 2000",
    "type": "NGV",
    "lat": 13.6560997,
    "lng": 100.3935783
  },
  {
    "id": 144,
    "name": "สถานีบริการ LPG บริษัท เค เอส เอ็ม ออโต้แก็ส จำกัด",
    "address": "30/62 ถนนบางบอน 5 แขวงบางบอน เขตบางบอน กรุงเทพฯ 10150",
    "dcode": "1050",
    "dname": "บางบอน",
    "tel": "-",
    "type": "LPG",
    "lat": 13.64302789,
    "lng": 100.3675919
  },
  {
    "id": 145,
    "name": "สถานีบริการ LPG บริษัท แก๊สยิ่งดี กาญจนา จำกัด",
    "address": "105/236 ถนนกาญจนาภิเษก แขวงบางบอน เขตบางบอน กรุงเทพฯ 10150",
    "dcode": "1050",
    "dname": "บางบอน",
    "tel": "-",
    "type": "LPG",
    "lat": 13.66082118,
    "lng": 100.4059193
  },
  {
    "id": 146,
    "name": "สถานีบริการก๊าซธรรมชาติ บริษัท เดอะซัน แก๊ส จำกัด",
    "address": "133/1 ถ.พระรามที่ 3 แขวงบางคอแหลม เขตบางคอแหลม กรุงเทพฯ",
    "dcode": "1031",
    "dname": "บางคอแหลม",
    "tel": "-",
    "type": "NGV",
    "lat": 13.69390951,
    "lng": 100.5008983
  },
  {
    "id": 147,
    "name": "สถานีบริการ LPG บริษัท พระราม 4 แอลพีจี จำกัด",
    "address": "3243 ถนนพระราม 4 แขวงคลองตันเหนือ เขตคลองเตย กรุงเทพฯ 10110",
    "dcode": "1033",
    "dname": "คลองเตย",
    "tel": "-",
    "type": "LPG",
    "lat": 13.7162398,
    "lng": 100.5745168
  },
  {
    "id": 148,
    "name": "สถานีบริการ LPG บริษัท โฟร์ยู แก๊ส จำกัด",
    "address": "12 ถนนเลียบคลองสอง แขวงบางชัน คลองสามวา กรุงเทพฯ 10510",
    "dcode": "1046",
    "dname": "คลองสามวา",
    "tel": "-",
    "type": "LPG",
    "lat": 13.85983924,
    "lng": 100.6969558
  },
  {
    "id": 149,
    "name": "สถานีบริการก๊าซธรรมชาติ ปตท. สาขาสำนักงานปลัดกระทรวงกลาโหม (ทางด่วนบางนา ขาออก)",
    "address": "108 ถนนสุขุมวิท64 แขวงบางจาก เขตพระโขนง กรุงเทพฯ 10260",
    "dcode": "1009",
    "dname": "พระโขนง",
    "tel": "0 2537 5418",
    "type": "NGV",
    "lat": 13.68619108,
    "lng": 100.6030854
  },
  {
    "id": 150,
    "name": "สถานีบริการ LPG บริษัท นาทีเงิน จำกัด",
    "address": "139 ถนนสิรินธร แขวงบางบำหรุ เขตบางพลัด กรุงเทพฯ 10700",
    "dcode": "1025",
    "dname": "บางพลัด",
    "tel": "-",
    "type": "LPG",
    "lat": 13.78612045,
    "lng": 100.4890274
  },
  {
    "id": 151,
    "name": "สถานีบริการก๊าซธรรมชาติ ปตท. สาขาสวัสดิการกองร้อยลาดตระเวนระยะไกล",
    "address": "119/121 ม.2 แขวงทุ่งสองห้อง เขตหลักสี่ กรุงเทพฯ 10210",
    "dcode": "1041",
    "dname": "หลักสี่",
    "tel": "0 2537 5418",
    "type": "NGV",
    "lat": 13.89084346,
    "lng": 100.5682036
  },
  {
    "id": 152,
    "name": "สถานีบริการก๊าซธรรมชาติ ปตท. สาขาเตียเจริญ",
    "address": "36/693 หมู่ 1 แขวงแสมดำ เขตบางขุนเทียน กรุงเทพฯ 10150",
    "dcode": "1021",
    "dname": "บางขุนเทียน",
    "tel": "0 2537 5745",
    "type": "NGV",
    "lat": 13.64231001,
    "lng": 100.4134632
  },
  {
    "id": 153,
    "name": "สถานีบริการก๊าซธรรมชาติ ปตท. สาขาเลิศกัลปพฤกษ์",
    "address": "11/165 หมู่ 6 แขวงบางขุนเทียน เขตจอมทอง กรุงเทพฯ 10150",
    "dcode": "1035",
    "dname": "จอมทอง",
    "tel": "0 2537 5745",
    "type": "NGV",
    "lat": 13.69836288,
    "lng": 100.4405911
  },
  {
    "id": 154,
    "name": "สถานีบริการก๊าชธรรมชาติหลัก ปตท. สาขาทุ่งครุ",
    "address": "98/22 หมู่ 3 แขวงทุ่งครุ เขตทุ่งครุ กรุงเทพฯ 10140",
    "dcode": "1049",
    "dname": "ทุ่งครุ",
    "tel": "0 2537 5745",
    "type": "NGV",
    "lat": 13.62109695,
    "lng": 100.4978314
  },
  {
    "id": 155,
    "name": "สถานีบริการก๊าซธรรมชาติ ปตท. สาขาพรศักดิ์ ปิโตรเลี่ยม",
    "address": "382/12 ถนนอ่อนนุช แขวงประเวศ เขตประเวศ กรุงเทพฯ 10250",
    "dcode": "1032",
    "dname": "ประเวศ",
    "tel": "0 2537 5745",
    "type": "NGV",
    "lat": 13.72088395,
    "lng": 100.6963219
  },
  {
    "id": 156,
    "name": "สถานีบริการก๊าซธรรมชาติ ปตท. สาขาพิชัยก๊าซ",
    "address": "19/48 ม.3 ถนนวัชรพล แขวงคลองถนน เขตสายไหม กรุงเทพฯ 10220",
    "dcode": "1042",
    "dname": "สายไหม",
    "tel": "0 2537 5418",
    "type": "NGV",
    "lat": 13.89151944,
    "lng": 100.6414046
  },
  {
    "id": 157,
    "name": "สถานีบริการก๊าซธรรมชาติ ปตท. สาขายูนิเวอร์แซล ซิสเทมา",
    "address": "3/47 แขวงลาดพร้าว เขตลาดพร้าว กรุงเทพฯ 10230",
    "dcode": "1038",
    "dname": "ลาดพร้าว",
    "tel": "0 2537 5418",
    "type": "NGV",
    "lat": 13.82245524,
    "lng": 100.6084624
  },
  {
    "id": 158,
    "name": "สถานีบริการก๊าซธรรมชาติ ปตท. สาขา สำนักงานปลัดกระทรวงกลาโหม( สุขุมวิท 64 ขาเข้า)",
    "address": "110 ถนนสุขุมวิท 64 แยก 10 แขวงบางจาก เขตพระโขนง กรุงเทพฯ 10260",
    "dcode": "1009",
    "dname": "พระโขนง",
    "tel": "0 2537 5418",
    "type": "NGV",
    "lat": 13.68553179,
    "lng": 100.6016019
  },
  {
    "id": 159,
    "name": "สถานีบริการก๊าซธรรมชาติ ปตท. สาขาสำนักงานปลัดกระทรวงกลาโหม (สุขุมวิท 64 ขาออก)",
    "address": "108 ถนนสุขุมวิท64 แขวงบางจาก เขตพระโขนง กรุงเทพฯ 10260",
    "dcode": "1009",
    "dname": "พระโขนง",
    "tel": "0 2537 5418",
    "type": "NGV",
    "lat": 13.68595092,
    "lng": 100.6038788
  },
  {
    "id": 160,
    "name": "สถานีบริการก๊าซธรรมชาติ ปตท. สาขาพาสอินเตอร์ กรุ๊ป",
    "address": "959/3 ถนนลาดกระบัง แขวงลาดกระบัง เขตลาดกระบัง กรุงเทพ 10520",
    "dcode": "1011",
    "dname": "ลาดกระบัง",
    "tel": "0 2537 5418",
    "type": "NGV",
    "lat": 13.72298235,
    "lng": 100.7428504
  },
  {
    "id": 161,
    "name": "สถานีบริการก๊าซธรรมชาติ ปตท. สาขา จ.ปิโตรเลี่ยม",
    "address": "870/4 ถนนลาดกระบัง แขวงลาดกระบัง เขตลาดกระบัง กรุงเทพ 10520",
    "dcode": "1011",
    "dname": "ลาดกระบัง",
    "tel": "0 2537 5418",
    "type": "NGV",
    "lat": 13.72227852,
    "lng": 100.7478006
  },
  {
    "id": 162,
    "name": "สถานีบริการก๊าซธรรมชาติ ปตท. สาขาซิตี้ คอนเน็ก",
    "address": "96/9 แขวงมีนบุรี เขตมีนบุรี กรุงเทพฯ 10510",
    "dcode": "1010",
    "dname": "มีนบุรี",
    "tel": "0 2537 5418",
    "type": "NGV",
    "lat": 13.79661207,
    "lng": 100.7450325
  },
  {
    "id": 163,
    "name": "สถานีบริการก๊าซธรรมชาติ บริษัท ทีพีไอ โพลีน เพาเวอร์ จำกัด (มหาชน)",
    "address": "717/7 ม.5 แขวงลาดกระบัง เขตลาดกระบัง กรุงเทพฯ",
    "dcode": "1011",
    "dname": "ลาดกระบัง",
    "tel": "-",
    "type": "NGV",
    "lat": 13.72207062,
    "lng": 100.7630628
  },
  {
    "id": 164,
    "name": "สถานีบริการก๊าชธรรมชาติหลัก ปตท. สาขากัลปพฤกษ์",
    "address": "65 ถนนกัลปพฤกษ์ แขวงบางหว้า เขตภาษีเจริญ กรุงเทพ 10160",
    "dcode": "1022",
    "dname": "ภาษีเจริญ",
    "tel": "0 2537 5418",
    "type": "NGV",
    "lat": 13.70802703,
    "lng": 100.4512828
  },
  {
    "id": 165,
    "name": "สถานีบริการก๊าซธรรมชาติ ปตท. สาขาภัทรชัย แก๊ส",
    "address": "69 ถนนเจริญราษฎร์ แขวงบางโคล่ เขตบางคอแหลม กรุงเทพฯ 10120",
    "dcode": "1031",
    "dname": "บางคอแหลม",
    "tel": "0 2537 5745",
    "type": "NGV",
    "lat": 13.69684994,
    "lng": 100.5138233
  },
  {
    "id": 166,
    "name": "สถานีบริการก๊าซธรรมชาติ ปตท. สาขาเบสท์ เอ็นเนร์ยี่ พลัส สาขาที่ 00033",
    "address": "6/1 ม.4 ถนนรามอินทรา แขวงอนุเสาวรีย์ เขตบางเขน กรุงเทพ 10220",
    "dcode": "1005",
    "dname": "บางเขน",
    "tel": "0 2537 5745",
    "type": "NGV",
    "lat": 13.86661039,
    "lng": 100.6112177
  },
  {
    "id": 167,
    "name": "สถานีบริการก๊าซธรรมชาติ ปตท. สาขาภาวดี กาญจนาภิเษก",
    "address": "40/28 ม.10 แขวงบางบอน เขตบางบอน กรุงเทพ 10150",
    "dcode": "1050",
    "dname": "บางบอน",
    "tel": "0 2537 5745",
    "type": "NGV",
    "lat": 13.67161778,
    "lng": 100.4069725
  },
  {
    "id": 168,
    "name": "สถานีบริการก๊าซธรรมชาติ ปตท. สาขา ช. สามเศียร",
    "address": "444/4 ถนนเพชรเกษม แขวงบางหว้า เขตภาษีเจริญ กรุงเทพ",
    "dcode": "1022",
    "dname": "ภาษีเจริญ",
    "tel": "0 2537 5745",
    "type": "NGV",
    "lat": 13.7143531,
    "lng": 100.4407533
  },
  {
    "id": 169,
    "name": "สถานีบริการก๊าชธรรมชาติหลัก ปตท. สาขานิมิตใหม่ ๒",
    "address": "958/1 ถนนนิมิตรใหม่ แขวงสามวาตะวันออก เขตคลองสามวา กรุงเทพ 10510",
    "dcode": "1046",
    "dname": "คลองสามวา",
    "tel": "0 2537 5745",
    "type": "NGV",
    "lat": 13.91439043,
    "lng": 100.7489009
  },
  {
    "id": 170,
    "name": "สถานีบริการก๊าซธรรมชาติ ปตท. สาขาภูริภัทร ปิโตรเลียม (2007)",
    "address": "236/1 ถ.สุวินทวงศ์ แขวงแสนแสบ เขตมีนบุรี กรุงเทพ 10510",
    "dcode": "1010",
    "dname": "มีนบุรี",
    "tel": "0 2537 5745",
    "type": "NGV",
    "lat": 13.81375341,
    "lng": 100.7633709
  },
  {
    "id": 171,
    "name": "สถานีบริการก๊าซธรรมชาติ ปตท. สาขาสยามโพธิ์แก้ว ปิโตรเลียม",
    "address": "106/357 ม.6 แขวงคลองกุ่ม เขตบึงกุ่ม กรุงเทพฯ 10240",
    "dcode": "1027",
    "dname": "บึงกุ่ม",
    "tel": "0 2537 5745",
    "type": "NGV",
    "lat": 13.80066716,
    "lng": 100.644596
  },
  {
    "id": 172,
    "name": "สถานีบริการก๊าซธรรมชาติ ปตท. สาขาพี.จี.เอ. แอดวานซ์ คอร์ปอเรชั่น",
    "address": "181/3 ถนนกรุงเทพกรีฑา แขวงหัวหมาก เขตบางกระปิ กรุงเทพฯ 10240",
    "dcode": "1006",
    "dname": "บางกะปิ",
    "tel": "0 2537 5745",
    "type": "NGV",
    "lat": 13.74819125,
    "lng": 100.6562127
  },
  {
    "id": 173,
    "name": "สถานีบริการก๊าซธรรมชาติ ปตท. สาขาเลิศนิมิตรใหม่ 47",
    "address": "13/1 ถนนนิมิตใหม่ แขวงมีนบุรี เขตมันบุรี กรุงเทพฯ 10510",
    "dcode": "1010",
    "dname": "มีนบุรี",
    "tel": "0 2537 5706",
    "type": "NGV",
    "lat": 13.82584463,
    "lng": 100.739608
  },
  {
    "id": 174,
    "name": "สถานีบริการก๊าซธรรมชาติ ปตท. สาขา ขสมก. แสมดำ",
    "address": "66/36 ม.4 ถนนพระรามที่ 2 ซอย 94 แขวงแสมดำ เขตบางขุนเทียน กรุงเทพฯ 10510",
    "dcode": "1021",
    "dname": "บางขุนเทียน",
    "tel": "0 2537 2000",
    "type": "NGV",
    "lat": 13.62187285,
    "lng": 100.387453
  },
  {
    "id": 175,
    "name": "สถานีบริการก๊าซธรรมชาติ ปตท. สาขา ไทย บูสต์",
    "address": "1493/1 ถนนลาดกระบัง แขวงลาดกระบัง เขตลาดกระบัง กรุงเทพ 10520",
    "dcode": "1011",
    "dname": "ลาดกระบัง",
    "tel": "0 2537 5706",
    "type": "NGV",
    "lat": 13.72282877,
    "lng": 100.7312742
  },
  {
    "id": 176,
    "name": "สถานีบริการก๊าซธรรมชาติ ปตท. สาขาSUSCO ถนนพระราม 9 ห้วยขวาง",
    "address": "44/2 ถ.พระราม 9 ถ.พระราม 9 แขวงห้วยขวาง เขตห้วยขวาง กรุงเทพ 10320",
    "dcode": "1017",
    "dname": "ห้วยขวาง",
    "tel": "0 2537 5706",
    "type": "NGV",
    "lat": 13.75560908,
    "lng": 100.566827
  },
  {
    "id": 177,
    "name": "สถานีบริการก๊าซธรรมชาติ ปตท. สาขาเอ็นจีวีลาดกระบัง",
    "address": "22/10 ม.10 ถนนฉลองกรุง แขวงลำประทิว เขตลาดกระบัง กรุงเทพ 10520",
    "dcode": "1011",
    "dname": "ลาดกระบัง",
    "tel": "0 2537 5706",
    "type": "NGV",
    "lat": 13.7467162,
    "lng": 100.7934261
  },
  {
    "id": 178,
    "name": "สถานีบริการก๊าซธรรมชาติ ปตท. สาขาพิมลรัตน์ปิโตรเลียม",
    "address": "45/10 ถ.ริมคลองแสนแสบ ถ.ริมคลองแสนแสบ แขวงบางกะปิ เขตห้วยขวาง กรุงเทพ 10320",
    "dcode": "1017",
    "dname": "ห้วยขวาง",
    "tel": "0 2585 3200",
    "type": "NGV",
    "lat": 13.74739525,
    "lng": 100.5987851
  },
  {
    "id": 179,
    "name": "สถานีบริการก๊าซธรรมชาติ ปตท. สาขาเอสเอสจี คอร์ปอเรชั่น",
    "address": "88/1 ถ.กำแพงเพชร 2 แขวงจตุจักร เขตจตุจักร กรุงเทพ 10900",
    "dcode": "1030",
    "dname": "จตุจักร",
    "tel": "0 2936 2089",
    "type": "NGV",
    "lat": 13.81615471,
    "lng": 100.546641
  },
  {
    "id": 180,
    "name": "สถานีบริการก๊าซธรรมชาติ ปตท. สาขาบางกอกเอ็นจีวี",
    "address": "83 ถ.สุวินทวงศ์ ถ.สุวินทวงศ์ แขวงมีนบุรี เขตมีนบุรี กรุงเทพ 10510",
    "dcode": "1010",
    "dname": "มีนบุรี",
    "tel": "0 2181 0359",
    "type": "NGV",
    "lat": 13.81974225,
    "lng": 100.7359833
  },
  {
    "id": 181,
    "name": "สถานีบริการก๊าซธรรมชาติ ปตท.สาขายูเนี่ยนบัส ร่มเกล้า",
    "address": "199/2 ถ.ร่มเกล้า ถ.ร่มเกล้า แขวงคลองสามประเวศ เขตลาดกระบัง กรุงเทพ 10520",
    "dcode": "1011",
    "dname": "ลาดกระบัง",
    "tel": "0 2360 9049",
    "type": "NGV",
    "lat": 13.7443937,
    "lng": 100.7467902
  },
  {
    "id": 182,
    "name": "สถานีบริการก๊าซธรรมชาติ ปตท. สาขาชัยพฤกษ์เสาเข็มและปั้นจั่น กรุ๊ป",
    "address": "38/1 ถนนนิมิตใหม่ แขวงมีนบุรี เขตมีนบุรี กรุงเทพฯ 10510",
    "dcode": "1010",
    "dname": "มีนบุรี",
    "tel": "0 2537 5706",
    "type": "NGV",
    "lat": 13.82739037,
    "lng": 100.7395825
  },
  {
    "id": 183,
    "name": "สถานีบริการก๊าซธรรมชาติ ปตท. สาขาเอ็น.จี.วี. กม.5",
    "address": "77/1 หมู่ที่ 3 แขวงแสนแสบ เขตมีนบุรี กรุงเทพ 10510",
    "dcode": "1010",
    "dname": "มีนบุรี",
    "tel": "0 2907 3375",
    "type": "NGV",
    "lat": 13.81484851,
    "lng": 100.7619086
  },
  {
    "id": 184,
    "name": "สถานีบริการก๊าซธรรมชาติ ปตท. สาขาทรัพย์ทวี เนเชอรัลก๊าซ",
    "address": "2581 ถ.พหลโยธิน ถ.พหลโยธิน แขวงลาดยาว เขตจตุจักร กรุงเทพ 10900",
    "dcode": "1030",
    "dname": "จตุจักร",
    "tel": "0 2942 7004",
    "type": "NGV",
    "lat": 13.85305404,
    "lng": 100.5831955
  },
  {
    "id": 185,
    "name": "สถานีบริการก๊าซธรรมชาติ ปตท. สาขาBRT",
    "address": "131/1 ตรอกนอกเขต ถ.พระราม3 ถ.พระราม 3 แขวงช่องนนทรี เขตยานนาวา กรุงเทพ 10120",
    "dcode": "1012",
    "dname": "ยานนาวา",
    "tel": "0 2294 2830",
    "type": "NGV",
    "lat": 13.69354793,
    "lng": 100.5493028
  },
  {
    "id": 186,
    "name": "สถานีบริการก๊าซธรรมชาติ ปตท. สาขากลอรี่ แอสเซท",
    "address": "79 ถ.ประเสริฐมนูกิจ ถ.ประเสริฐมนูกิจ แขวงจรเข้บัว เขตลาดพร้าว กรุงเทพ 10230",
    "dcode": "1038",
    "dname": "ลาดพร้าว",
    "tel": "0 2578 2027",
    "type": "NGV",
    "lat": 13.84037034,
    "lng": 100.5988078
  },
  {
    "id": 187,
    "name": "สถานีบริการก๊าซธรรมชาติ บริษัท สยามราช จำกัด (มหาชน) สาขาบางนา",
    "address": "325/1 ถนนบางนา-ตราด แขวงบางนา เขตบางนา กรุงเทพฯ",
    "dcode": "1047",
    "dname": "บางนา",
    "tel": "0 2743 5010",
    "type": "NGV",
    "lat": 13.67140392,
    "lng": 100.6196519
  },
  {
    "id": 188,
    "name": "สถานีบริการก๊าซธรรมชาติ ปตท. สาขาเพชรมาเจริญ 81",
    "address": "169 ถ.มาเจริญ ซอยเพชรเกษม 81 แขวงหนองค้างพลู เขตหนองแขม กรุงเทพ 10160",
    "dcode": "1023",
    "dname": "หนองแขม",
    "tel": "-",
    "type": "NGV",
    "lat": 13.69460453,
    "lng": 100.3421311
  },
  {
    "id": 189,
    "name": "สถานีบริการก๊าซธรรมชาติ บริษัท กัลปพฤกษ์ เนเชอรัล แก๊ส ซัพพลาย (2008) จำกัด",
    "address": "4/1 ถ.กัลปพฤกษ์ แขวงบางแค เขตบางแค กรุงเทพมหานคร 10160",
    "dcode": "1040",
    "dname": "บางแค",
    "tel": "0 2455 2440",
    "type": "NGV",
    "lat": 13.68725571,
    "lng": 100.4260919
  },
  {
    "id": 190,
    "name": "สถานีบริการก๊าซธรรมชาติ ปตท. สาขาทองทอน พระราม 2",
    "address": "66/1-2 ม.4 ถนนพระรามที่ 2 แขวงท่าข้าม เขตบางขุนเทียน กรุงเทพ 10150",
    "dcode": "1021",
    "dname": "บางขุนเทียน",
    "tel": "-",
    "type": "NGV",
    "lat": 13.62955384,
    "lng": 100.3960476
  },
  {
    "id": 191,
    "name": "สถานีบริการก๊าซธรรมชาติ บริษัท ทองสง่าพาณิชย์ จำกัด",
    "address": "300/46 ม.1 ถนนหลวงแพ่ง แขวงทับยาว เขตลาดกระบัง กรุงเทพ 10520",
    "dcode": "1011",
    "dname": "ลาดกระบัง",
    "tel": "-",
    "type": "NGV",
    "lat": 13.7178998,
    "lng": 100.7999835
  },
  {
    "id": 192,
    "name": "สถานีบริการก๊าซธรรมชาติ บริษัท พี-พาวเวอร์ พลัส จำกัด",
    "address": "1052 ถ.รามคำแหง แขวงหัวหมาก เขตบางกะปิ กรุงเทพ 10240",
    "dcode": "1006",
    "dname": "บางกะปิ",
    "tel": "0 2735 0890",
    "type": "NGV",
    "lat": 13.76961651,
    "lng": 100.6624298
  },
  {
    "id": 193,
    "name": "สถานีบริการก๊าซธรรมชาติ บริษัท ตลิ่งชัน เอ็น.จี.วี. จำกัด",
    "address": "67/1 หมู่ 6 ถ.บรมราชชนนี แขวงตลิ่งชัน เขตตลิ่งชัน กรุงเทพ 1017",
    "dcode": "1019",
    "dname": "ตลิ่งชัน",
    "tel": "-",
    "type": "NGV",
    "lat": 13.78451218,
    "lng": 100.4602536
  },
  {
    "id": 194,
    "name": "สถานีบริการก๊าซธรรมชาติ ปตท. สาขาดนัยนา",
    "address": "54 ม.7 ถนนกาญจนภิเษก แขวงฉิมพลี เขตตลิ่งชัน กรุงเทพมหานคร 10170",
    "dcode": "1019",
    "dname": "ตลิ่งชัน",
    "tel": "0 2422 2722",
    "type": "NGV",
    "lat": 13.79525075,
    "lng": 100.4107902
  },
  {
    "id": 195,
    "name": "สถานีบริการก๊าซธรรมชาติ พลังไทยเพื่อไทย",
    "address": "888/6 ถ.พหลโยธิน แขวงอนุสาวรีย์ เขตบางเขน กรุงเทพ 10220",
    "dcode": "1005",
    "dname": "บางเขน",
    "tel": "0 2521 9165",
    "type": "NGV",
    "lat": 13.88777939,
    "lng": 100.6043692
  },
  {
    "id": 196,
    "name": "สถานีบริการ LPG บริษัท หทัยราษฎร์ ออโต้แก๊ส จำกัด",
    "address": "248 ถนนหทัยราษฎร์ แขวงบางชัน เขตคลองสามวา กรุงเทพ 10510",
    "dcode": "1046",
    "dname": "คลองสามวา",
    "tel": "-",
    "type": "LPG",
    "lat": 13.84551557,
    "lng": 100.721217
  },
  {
    "id": 197,
    "name": "สถานีบริการ LPG หจก.วิลล่า แอล.พี.จี ออโต้ สเตชั่น",
    "address": "746 ถนนหทัยราษฎร์ แขวงบางชัน เขตคลองสามวา กรุงเทพ 10510",
    "dcode": "1046",
    "dname": "คลองสามวา",
    "tel": "-",
    "type": "LPG",
    "lat": 13.86071761,
    "lng": 100.7225963
  },
  {
    "id": 198,
    "name": "สถานีบริการ LPG บริษัท ชลินันท์ แก๊ส",
    "address": "485 ม.6 ถนนหทัยราษฎร์ แขวงสามวาตะวันตก เขตคลองสามวา กรุงเทพ 10510",
    "dcode": "1046",
    "dname": "คลองสามวา",
    "tel": "-",
    "type": "LPG",
    "lat": 13.91113282,
    "lng": 100.7214883
  },
  {
    "id": 199,
    "name": "สถานีบริการ LPG บริษัท เอส ซี จี หทัยราษฎร์ จำกัด",
    "address": "515 ถนนหทัยราษฎร์ แขวงบางชัน เขตคลองสามวา กรุงเทพ 10510",
    "dcode": "1046",
    "dname": "คลองสามวา",
    "tel": "-",
    "type": "LPG",
    "lat": 13.84732148,
    "lng": 100.720185
  },
  {
    "id": 200,
    "name": "สถานีบริการ LPG บริษัท ดี.ดำรง เพาเวอร์-คู้บอน จำกัด",
    "address": "240/10 ถนนคู้บอน แขวงบางชัน เขตคลองสามวา กรุงเทพ 10510",
    "dcode": "1046",
    "dname": "คลองสามวา",
    "tel": "-",
    "type": "LPG",
    "lat": 13.85831135,
    "lng": 100.6878604
  },
  {
    "id": 201,
    "name": "สถานีบริการ LPG บริษัท หทัยราษฎร์แก๊ส จำกัด",
    "address": "60/2 ถนนคู้บอน แขวงบางชัน เขตคลองสามวา กรุงเทพ 10510",
    "dcode": "1046",
    "dname": "คลองสามวา",
    "tel": "-",
    "type": "LPG",
    "lat": 13.85685896,
    "lng": 100.6821977
  },
  {
    "id": 202,
    "name": "สถานีบริการ LPG บริษัท ณิชชาภัทรแก๊ส จำกัด",
    "address": "528 ถนนประชาร่วมใจ แขวงทรายกองดินใต้ เขตคลองสามวา กรุงเทพ 10510",
    "dcode": "1046",
    "dname": "คลองสามวา",
    "tel": "-",
    "type": "LPG",
    "lat": 13.8295634,
    "lng": 100.7593184
  },
  {
    "id": 203,
    "name": "สถานีบริการ LPG บริษัท เอ็น เอสแก๊ส แอลพีจี จำกัด",
    "address": "17/3 ถนนนิมิตรใหม่ แขวงมีนบุรี เขตมีนบุรี กรุงเทพ 10510",
    "dcode": "1010",
    "dname": "มีนบุรี",
    "tel": "-",
    "type": "LPG",
    "lat": 13.82901636,
    "lng": 100.7384384
  },
  {
    "id": 204,
    "name": "สถานีบริการ LPG บริษัท เอส ซี จี รามอินทรา จำกัด",
    "address": "908-908/1 ถนนรามอินทรา แขวงคันนายาว เขตคันนายาว กรุงเทพ 10230",
    "dcode": "1043",
    "dname": "คันนายาว",
    "tel": "-",
    "type": "LPG",
    "lat": 13.81249538,
    "lng": 100.6956137
  },
  {
    "id": 205,
    "name": "สถานีบริการ LPG บริษัท ฟ้ากำหนด จำกัด",
    "address": "626 ถนนรามอินทรา แขวงคันนายาว เขตคันนายาว กรุงเทพ 10230",
    "dcode": "1043",
    "dname": "คันนายาว",
    "tel": "-",
    "type": "LPG",
    "lat": 13.83009229,
    "lng": 100.670776
  },
  {
    "id": 206,
    "name": "สถานีบริการ LPG บริษัท แฟมิลี่ แก๊ส ซิสเต็ม จำกัด",
    "address": "238 ถนนรามอินทรา แขวงคันนายาว เขตคันนายาว กรุงเทพ 10230",
    "dcode": "1043",
    "dname": "คันนายาว",
    "tel": "-",
    "type": "LPG",
    "lat": 13.84162484,
    "lng": 100.6562522
  },
  {
    "id": 207,
    "name": "สถานีบริการ LPG สำนักงานอัยการสูงสุด",
    "address": "51/1 ถนนจอมพล แขวงจตุจักร เขตจตุจักร กรุงเทพ 10900",
    "dcode": "1030",
    "dname": "จตุจักร",
    "tel": "-",
    "type": "LPG",
    "lat": 13.8220828,
    "lng": 100.5739026
  },
  {
    "id": 208,
    "name": "สถานีบริการ LPG บริษัท จตุจักรปิโตรเลียม จำกัด",
    "address": "17/18 ถนนกำแพงเพชร 2 แขวงลาดยาว เขตจตุจักร กรุงเทพ 10900",
    "dcode": "1030",
    "dname": "จตุจักร",
    "tel": "-",
    "type": "LPG",
    "lat": 13.82529952,
    "lng": 100.5499574
  },
  {
    "id": 209,
    "name": "สถานีบริการ LPG บริษัท ไออาร์อาร์ คอร์ปอเรชั่น จำกัด",
    "address": "575 ถนนรัชดาภิเษก แขวงจตุจักร เขตจตุจักร กรุงเทพ 10900",
    "dcode": "1030",
    "dname": "จตุจักร",
    "tel": "-",
    "type": "LPG",
    "lat": 13.82964884,
    "lng": 100.543992
  },
  {
    "id": 210,
    "name": "สถานีบริการ LPG บริษัท กมลทิพย์ จำกัด",
    "address": "118 ถนนเอกชัย แขวงบางขุนเทียน เขตจอมทอง กรุงเทพ 10150",
    "dcode": "1035",
    "dname": "จอมทอง",
    "tel": "-",
    "type": "LPG",
    "lat": 13.70019238,
    "lng": 100.4615712
  },
  {
    "id": 211,
    "name": "สถานีบริการ LPG บริษัท เลิศกัลปพฤกษ์ จำกัด",
    "address": "4/290 ถนนกัลปพฤกษ์ แขวงบางขุนเทียน เขตจอมทอง กรุงเทพ 10150",
    "dcode": "1035",
    "dname": "จอมทอง",
    "tel": "-",
    "type": "LPG",
    "lat": 13.69858725,
    "lng": 100.4408699
  },
  {
    "id": 212,
    "name": "สถานีบริการ LPG บริษัท ฐิติภัทร เซอร์วิส จำกัด",
    "address": "ถนนพระรามที่ 2 แขวงบางมด เขตจอมทอง กรุงเทพ 10150",
    "dcode": "1035",
    "dname": "จอมทอง",
    "tel": "-",
    "type": "LPG",
    "lat": 13.68021711,
    "lng": 100.4734012
  },
  {
    "id": 213,
    "name": "สถานีบริการ LPG บริษัท รวยเป๋าตุง ปิโตรเลียม จำกัด",
    "address": "25 ถนนพหลโยธิน แขวงสีกัน เขตดอนเมือง กรุงเทพ 10210",
    "dcode": "1036",
    "dname": "ดอนเมือง",
    "tel": "-",
    "type": "LPG",
    "lat": 13.94289379,
    "lng": 100.6228233
  },
  {
    "id": 214,
    "name": "สถานีบริการ LPG บริษัท ฟ้ากำหนด จำกัด",
    "address": "45 ม.13 ถนนราชพฤกษ์ แขวงตลิ่งชัน เขตตลิ่งชัน กรุงเทพ 10170",
    "dcode": "1019",
    "dname": "ตลิ่งชัน",
    "tel": "-",
    "type": "LPG",
    "lat": 13.79044778,
    "lng": 100.4470643
  },
  {
    "id": 215,
    "name": "สถานีบริการ LPG บริษัท เบสท์ เอ็นเนอร์ยี่ พลัส จำกัด",
    "address": "486 ถนนบรมราชชนนี แขวงศาลาธรรมสพน์ เขตทวีวัฒนา กรุงเทพ 10170",
    "dcode": "1048",
    "dname": "ทวีวัฒนา",
    "tel": "-",
    "type": "LPG",
    "lat": 13.78786086,
    "lng": 100.3667566
  },
  {
    "id": 216,
    "name": "สถานีบริการ LPG บริษัท ประชาชัยวัฒน์ ปิโตรเลียม จำกัด",
    "address": "655 ถนนบรมราชชนนี แขวงศาลาธรรมสพน์ เขตทวีวัฒนา กรุงเทพ 10170",
    "dcode": "1048",
    "dname": "ทวีวัฒนา",
    "tel": "-",
    "type": "LPG",
    "lat": 13.7879985,
    "lng": 100.3565924
  },
  {
    "id": 217,
    "name": "สถานีบริการ LPG บริษัท ปิ่นเกล้าปิโตรเลียม จำกัด",
    "address": "77/9 ม.7 ถนนบรมราชชนนี แขวงศาลาธรรมสพน์ เขตทวีวัฒนา กรุงเทพ 10170",
    "dcode": "1048",
    "dname": "ทวีวัฒนา",
    "tel": "-",
    "type": "LPG",
    "lat": 13.78668233,
    "lng": 100.3770811
  },
  {
    "id": 218,
    "name": "สถานีบริการ LPG บริษัท เอ็ม เค โอ จำกัด",
    "address": "860 ถนนบรมราชชนนี แขวงศาลาธรรมสพน์ เขตทวีวัฒนา กรุงเทพ 10170",
    "dcode": "1048",
    "dname": "ทวีวัฒนา",
    "tel": "-",
    "type": "LPG",
    "lat": 13.78844516,
    "lng": 100.3377633
  },
  {
    "id": 219,
    "name": "สถานีบริการ LPG บริษัท ประชาอุทิศ ปิโตรเลียม จำกัด",
    "address": "2/102 ม.2 ถนนประชาอุทิศ แขวงทุ่งครุ เขตทุ่งครุ กรุงเทพ 10140",
    "dcode": "1049",
    "dname": "ทุ่งครุ",
    "tel": "-",
    "type": "LPG",
    "lat": 13.62698422,
    "lng": 100.5048928
  },
  {
    "id": 220,
    "name": "สถานีบริการ LPG บริษัท อัครอธิพัชร์ จำกัด",
    "address": "33/1 ถนนประชาอุทิศ แขวงทุ่งครุ เขตทุ่งครุ กรุงเทพ 10140",
    "dcode": "1049",
    "dname": "ทุ่งครุ",
    "tel": "-",
    "type": "LPG",
    "lat": 13.63620161,
    "lng": 100.5023816
  },
  {
    "id": 221,
    "name": "สถานีบริการ LPG บริษัท พี.พี.แก๊สเซอร์วิส จำกัด",
    "address": "30/8 ถนนครุใน แขวงทุ่งครุ เขตทุ่งครุ กรุงเทพ 10140",
    "dcode": "1049",
    "dname": "ทุ่งครุ",
    "tel": "-",
    "type": "LPG",
    "lat": 13.6245367,
    "lng": 100.5119847
  },
  {
    "id": 222,
    "name": "สถานีบริการ LPG บริษัท สมภพเซอร์วิส จำกัด",
    "address": "278/1 ถนนวุฒากาศ แขวงตลาดพลู เขตธนบุรี กรุงเทพ 10600",
    "dcode": "1015",
    "dname": "ธนบุรี",
    "tel": "-",
    "type": "LPG",
    "lat": 13.71114392,
    "lng": 100.4699417
  },
  {
    "id": 223,
    "name": "สถานีบริการ LPG บมจ.สยามแก๊ส แอนด์ ปิโตรเคมีคัลส์",
    "address": "158/1 ถนนรามคำแหง แขวงหัวหมาก เขตบางกระปิ กรุงเทพ 10240",
    "dcode": "1006",
    "dname": "บางกะปิ",
    "tel": "-",
    "type": "LPG",
    "lat": 13.75293478,
    "lng": 100.6114911
  },
  {
    "id": 224,
    "name": "สถานีบริการ LPG บริษัท วรรณนครินทร์ จำกัด",
    "address": "2 ซอยศรีนครินทร์ 5 ถนน ศรีนครินทร์ แขวง หัวหมาก เขตบางกระปิ กรุงเทพ 10240",
    "dcode": "1006",
    "dname": "บางกะปิ",
    "tel": "-",
    "type": "LPG",
    "lat": 13.74882925,
    "lng": 100.6446219
  },
  {
    "id": 225,
    "name": "สถานีบริการ LPG บริษัท นำศิริ จำกัด",
    "address": "177 ถนน ศรีนครินทร์ แขวง หัวหมาก เขตบางกระปิ กรุงเทพ 10240",
    "dcode": "1006",
    "dname": "บางกะปิ",
    "tel": "-",
    "type": "LPG",
    "lat": 13.75488397,
    "lng": 100.6461714
  },
  {
    "id": 226,
    "name": "สถานีบริการ LPG บริษัท กรีฑาแก๊ส จำกัด",
    "address": "280/9 ถนนกรุงเทพกรีฑา แขวงหัวหมาก เขตบางกระปิ กรุงเทพ 10240",
    "dcode": "1006",
    "dname": "บางกะปิ",
    "tel": "-",
    "type": "LPG",
    "lat": 13.74760456,
    "lng": 100.6560884
  },
  {
    "id": 227,
    "name": "สถานีบริการ LPG บริษัท เตียเจริญ จำกัด",
    "address": "4/957 ม.5 ถนนพระรามที่ 2 แขวงแสมดำ เขตบางขุนเทียน กรุงเทพ 10150",
    "dcode": "1021",
    "dname": "บางขุนเทียน",
    "tel": "-",
    "type": "LPG",
    "lat": 13.64236388,
    "lng": 100.4135282
  },
  {
    "id": 228,
    "name": "สถานีบริการ LPG บริษัท โชติช่วง แก๊ส จำกัด",
    "address": "ถนนบางขุนเทียน - ชายทะเล แขวงท่าข้าม เขตบางขุนเทียน กรุงเทพ 10150",
    "dcode": "1021",
    "dname": "บางขุนเทียน",
    "tel": "-",
    "type": "LPG",
    "lat": 13.61244007,
    "lng": 100.4375557
  },
  {
    "id": 229,
    "name": "สถานีบริการ LPG บริษัท แก๊สมีดี จำกัด",
    "address": "245/1 ถนนบางขุนเทียน - ชายทะเล แขวงแสมดำ เขตบางขุนเทียน กรุงเทพ 10150",
    "dcode": "1021",
    "dname": "บางขุนเทียน",
    "tel": "-",
    "type": "LPG",
    "lat": 13.64627291,
    "lng": 100.431789
  },
  {
    "id": 230,
    "name": "สถานีบริการ LPG บริษัท ทรัพย์นำชัยเซอร์วิส จำกัด",
    "address": "648 ถนนบางขุนเทียน - ชายทะเล แขวงท่าข้าม เขตบางขุนเทียน กรุงเทพ 10150",
    "dcode": "1021",
    "dname": "บางขุนเทียน",
    "tel": "-",
    "type": "LPG",
    "lat": 13.60601903,
    "lng": 100.4349107
  },
  {
    "id": 231,
    "name": "สถานีบริการ LPG บริษัท สแกงาม จำกัด",
    "address": "109/2 ถนนสะแกงาม แขวงแสมดำ เขตบางขุนเทียน กรุงเทพ 10150",
    "dcode": "1021",
    "dname": "บางขุนเทียน",
    "tel": "-",
    "type": "LPG",
    "lat": 13.6369442,
    "lng": 100.4191343
  },
  {
    "id": 232,
    "name": "สถานีบริการ LPG บริษัท 7 ธันวาเซอร์วิส จำกัด",
    "address": "89 ถนนพระรามที่ 2 แขวงแสมดำ เขตบางขุนเทียน กรุงเทพ 10150",
    "dcode": "1021",
    "dname": "บางขุนเทียน",
    "tel": "-",
    "type": "LPG",
    "lat": 13.61928652,
    "lng": 100.3859961
  },
  {
    "id": 233,
    "name": "สถานีบริการ LPG บริษัท ส.เจริญพจน์บริการ จำกัด",
    "address": "222 ม.4 ถนนลาดปลาเค้า แขวงอนุเสาวรีย์ เขตบางเขน กรุงเทพ 10220",
    "dcode": "1005",
    "dname": "บางเขน",
    "tel": "-",
    "type": "LPG",
    "lat": 13.86221246,
    "lng": 100.6133522
  },
  {
    "id": 234,
    "name": "สถานีบริการ LPG บริษัท ปิโตรเลียมน้ำมัน (รามอินทรา) จำกัด",
    "address": "60/8 ม.4 ถนนรามอินทรา แขวงอนุเสาวรีย์ เขตบางเขน กรุงเทพ 10220",
    "dcode": "1005",
    "dname": "บางเขน",
    "tel": "-",
    "type": "LPG",
    "lat": 13.85858257,
    "lng": 100.6223562
  },
  {
    "id": 235,
    "name": "สถานีบริการ LPG บริษัท เบสท์ เอ็นเนอร์ยี่ จำกัด",
    "address": "309 ถนนรามอินทรา แขวงอนุเสาวรีย์ เขตบางเขน กรุงเทพ 10220",
    "dcode": "1005",
    "dname": "บางเขน",
    "tel": "-",
    "type": "LPG",
    "lat": 13.85865768,
    "lng": 100.6246603
  },
  {
    "id": 236,
    "name": "สถานีบริการ LPG บริษัท ส.รุ่งพร จำกัด",
    "address": "239 ถนนพหลโยธิน แขวงอนุเสาวรีย์ เขตบางเขน กรุงเทพ 10220",
    "dcode": "1005",
    "dname": "บางเขน",
    "tel": "-",
    "type": "LPG",
    "lat": 13.88015061,
    "lng": 100.5988395
  },
  {
    "id": 237,
    "name": "สถานีบริการ LPG บริษัท ไออาร์อาร์ คอร์ปอร์เรชั่น จำกัด",
    "address": "55 ถ.วิภาวดี - รังสิต แขวงตลาดบางเขน เขตหลักสี่ กรุงเทพมหานคร 10210",
    "dcode": "1041",
    "dname": "หลักสี่",
    "tel": "-",
    "type": "LPG",
    "lat": 13.87908336,
    "lng": 100.5794768
  },
  {
    "id": 238,
    "name": "สถานีบริการ LPG บริษัท ซุปเปอร์ริส แอลพีจี จำกัด",
    "address": "8 ถนนวัชรพล แขวงท่าแร้ง เขตบางเขน กรุงเทพ 10220",
    "dcode": "1005",
    "dname": "บางเขน",
    "tel": "-",
    "type": "LPG",
    "lat": 13.85994714,
    "lng": 100.6467609
  },
  {
    "id": 239,
    "name": "สถานีบริการ LPG บริษัท เจริญกรุงแก๊ส จำกัด",
    "address": "2376 ถนนเจริญกรุง แขวงบางคอแหลม เขตบางคอแหลม กรุงเทพ 10120",
    "dcode": "1031",
    "dname": "บางคอแหลม",
    "tel": "-",
    "type": "LPG",
    "lat": 13.69812276,
    "lng": 100.4977724
  },
  {
    "id": 240,
    "name": "สถานีบริการ LPG บริษัท ภัทรชัยแก๊ส จำกัด",
    "address": "69/1 ถนนเจริญราษฎร์ แขวงบางโคล่ เขตบางคอแหลม กรุงเทพ 10120",
    "dcode": "1031",
    "dname": "บางคอแหลม",
    "tel": "-",
    "type": "LPG",
    "lat": 13.69677689,
    "lng": 100.513943
  },
  {
    "id": 241,
    "name": "สถานีบริการ LPG หจก.พงษ์สถาพรปิโตรเลียม",
    "address": "747,749 แขวงบางแค เขตบางแค กรุงเทพ 10160",
    "dcode": "1040",
    "dname": "บางแค",
    "tel": "-",
    "type": "LPG",
    "lat": 13.69915047,
    "lng": 100.4216425
  },
  {
    "id": 242,
    "name": "สถานีบริการ LPG บริษัท สตาร์แก๊ส จำกัด",
    "address": "655/1 ซอยเพชรเกษม 69 ถนนเพชรเกษม แขวงบางแคเหนือ เขตบางแค กรุงเทพ 10160",
    "dcode": "1040",
    "dname": "บางแค",
    "tel": "-",
    "type": "LPG",
    "lat": 13.69767534,
    "lng": 100.3788079
  },
  {
    "id": 243,
    "name": "สถานีบริการ LPG บริษัท ลิ้มเพชรเกษม จำกัด",
    "address": "1687 ถนนเพชรเกษม แขวงบางแคเหนือ เขตบางแค กรุงเทพ 10160",
    "dcode": "1040",
    "dname": "บางแค",
    "tel": "-",
    "type": "LPG",
    "lat": 13.70820133,
    "lng": 100.3846389
  },
  {
    "id": 244,
    "name": "สถานีบริการ LPG หจก.เก็ท มอร์ ออโต้ แก๊ส",
    "address": "1591/2 ถนนเพชรเกษม แขวงบางแคเหนือ เขตบางแค กรุงเทพ 10160",
    "dcode": "1040",
    "dname": "บางแค",
    "tel": "-",
    "type": "LPG",
    "lat": 13.70884764,
    "lng": 100.388674
  },
  {
    "id": 245,
    "name": "สถานีบริการ LPG บริษัท เอส.เอ็ม.ซี วิศวกรรม จำกัด",
    "address": "33/3 ถนนกัลปพฤกษ์ แขวงบางแค เขตบางแค กรุงเทพ 10160",
    "dcode": "1040",
    "dname": "บางแค",
    "tel": "-",
    "type": "LPG",
    "lat": 13.68264761,
    "lng": 100.4115126
  },
  {
    "id": 246,
    "name": "สถานีบริการ LPG บริษัท สยามกาญจนาภิเษก จำกัด",
    "address": "338/2 ถนนกาญจนาภิเษก แขวงบางแค เขตบางแค กรุงเทพ 10160",
    "dcode": "1040",
    "dname": "บางแค",
    "tel": "-",
    "type": "LPG",
    "lat": 13.70898122,
    "lng": 100.4066214
  },
  {
    "id": 247,
    "name": "สถานีบริการ LPG บริษัท ไมลิท จำกัด",
    "address": "66/6 ถนนพุทธมณฑลสาย 2 แขวงบางแคเหนือ เขตบางแค กรุงเทพ 10160",
    "dcode": "1040",
    "dname": "บางแค",
    "tel": "-",
    "type": "LPG",
    "lat": 13.71337904,
    "lng": 100.3962641
  },
  {
    "id": 248,
    "name": "สถานีบริการ LPG บริษัท แก๊สทาวน์ จำกัด",
    "address": "825/8 ถนนประชาชื่น แขวงบางซื่อ เขตบางซื่อ กรุงเทพ 10800",
    "dcode": "1029",
    "dname": "บางซื่อ",
    "tel": "-",
    "type": "LPG",
    "lat": 13.82540435,
    "lng": 100.5376092
  },
  {
    "id": 249,
    "name": "สถานีบริการ LPG บริษัท โกลเด้น เอ็นเนอจี่ ซัพพลาย จำกัด",
    "address": "470/1 ถนนวงศ์สว่าง แขวงบางซื่อ เขตบางซื่อ กรุงเทพ 10800",
    "dcode": "1029",
    "dname": "บางซื่อ",
    "tel": "-",
    "type": "LPG",
    "lat": 13.82203066,
    "lng": 100.5219915
  },
  {
    "id": 250,
    "name": "สถานีบริการ LPG บริษัท เบสท์ เอ็นเนอร์ยี่ พลัส จำกัด",
    "address": "1008 ถนนบางนา - ตราด แขวงบางนา เขตบางนา กรุงเทพ 10260",
    "dcode": "1047",
    "dname": "บางนา",
    "tel": "-",
    "type": "LPG",
    "lat": 13.66873776,
    "lng": 100.6265017
  },
  {
    "id": 251,
    "name": "สถานีบริการ LPG บริษัท นิปปอนแก๊ส จำกัด",
    "address": "1332 ถนนบางนา - ตราด แขวงบางนา เขตบางนา กรุงเทพ 10260",
    "dcode": "1047",
    "dname": "บางนา",
    "tel": "-",
    "type": "LPG",
    "lat": 13.6667987,
    "lng": 100.6368319
  },
  {
    "id": 252,
    "name": "สถานีบริการ LPG บริษัท เบสท์ เอ็นเนอร์ยี่ พลัส จำกัด",
    "address": "161 ถนนบางนา - ตราด แขวงบางนา เขตบางนา กรุงเทพ 10260",
    "dcode": "1047",
    "dname": "บางนา",
    "tel": "-",
    "type": "LPG",
    "lat": 13.67201779,
    "lng": 100.6156166
  },
  {
    "id": 253,
    "name": "สถานีบริการ LPG บริษัท เอ็ม.ที.กรุ๊ป เซอร์วิส จำกัด",
    "address": "3788 ถนนสุขุมวิท แขวงบางนา เขตบางนา กรุงเทพ 10260",
    "dcode": "1047",
    "dname": "บางนา",
    "tel": "-",
    "type": "LPG",
    "lat": 13.66066702,
    "lng": 100.6013321
  },
  {
    "id": 254,
    "name": "สถานีบริการ LPG บริษัท ธ.แสงเหรียญทอง จำกัด",
    "address": "926/2 ถนนเอกชัย แขวงบางบอน เขตบางบอน กรุงเทพ 10150",
    "dcode": "1050",
    "dname": "บางบอน",
    "tel": "-",
    "type": "LPG",
    "lat": 13.65098355,
    "lng": 100.3870499
  },
  {
    "id": 255,
    "name": "สถานีบริการ LPG บริษัท ซันนี่สเตชั่น จำกัด",
    "address": "50/96 ถนนบางบอน 1 แขวงบางบอน เขตบางบอน กรุงเทพ 10150",
    "dcode": "1050",
    "dname": "บางบอน",
    "tel": "-",
    "type": "LPG",
    "lat": 13.68178241,
    "lng": 100.4252639
  },
  {
    "id": 256,
    "name": "สถานีบริการ LPG บริษัท บริภัทรปิโตรเลียม จำกัด",
    "address": "43 ถนนกาญจนาภิเษก แขวงบางบอน เขตบางบอน กรุงเทพ 10150",
    "dcode": "1050",
    "dname": "บางบอน",
    "tel": "-",
    "type": "LPG",
    "lat": 13.65977925,
    "lng": 100.4047391
  },
  {
    "id": 257,
    "name": "สถานีบริการ LPG บริษัท ทีพีเอส กรีน จำกัด",
    "address": "179/1 ถนนบางบอน 5 แขวงบางบอน เขตบางบอน กรุงเทพ 10150",
    "dcode": "1050",
    "dname": "บางบอน",
    "tel": "-",
    "type": "LPG",
    "lat": 13.65396884,
    "lng": 100.3539275
  },
  {
    "id": 258,
    "name": "สถานีบริการ LPG บริษัท นิวดาวปิ่นเกล้า เซอร์วิส จำกัด",
    "address": "78/1 ถนนสิรินธร แขวงบางพลัด เขตบางพลัด กรุงเทพ 10700",
    "dcode": "1025",
    "dname": "บางพลัด",
    "tel": "-",
    "type": "LPG",
    "lat": 13.78699117,
    "lng": 100.4885427
  },
  {
    "id": 259,
    "name": "สถานีบริการ LPG บริษัท ฟ้ากำหนด จำกัด",
    "address": "50/1 ถนนจรัญสนิทวงศ์ แขวงบางยี่ขัน เขตบางพลัด กรุงเทพ 10700",
    "dcode": "1025",
    "dname": "บางพลัด",
    "tel": "-",
    "type": "LPG",
    "lat": 13.77428697,
    "lng": 100.4831815
  },
  {
    "id": 260,
    "name": "สถานีบริการ LPG บริษัท เบสท์ เอ็นเนอร์ยี่ พลัส จำกัด",
    "address": "211/2 ถนนราชวิถี แขวงบางพลัด เขตบางพลัด กรุงเทพ 10700",
    "dcode": "1025",
    "dname": "บางพลัด",
    "tel": "-",
    "type": "LPG",
    "lat": 13.78319829,
    "lng": 100.4983592
  },
  {
    "id": 261,
    "name": "สถานีบริการ LPG บริษัท ไทยร่วมออย จำกัด",
    "address": "422 ถนนพระราม 4 แขวงมหาพฤฒาราม เขตบางรัก กรุงเทพ 10500",
    "dcode": "1004",
    "dname": "บางรัก",
    "tel": "-",
    "type": "LPG",
    "lat": 13.73550567,
    "lng": 100.5206362
  },
  {
    "id": 262,
    "name": "สถานีบริการ LPG หจก. เอ เจ แก๊ส",
    "address": "41/372 ม.12 ถนนนวลจันทร์ แขวงคลองกุ่ม เขตบึงกุ่ม กรุงเทพ 10240",
    "dcode": "1027",
    "dname": "บึงกุ่ม",
    "tel": "-",
    "type": "LPG",
    "lat": 13.83283899,
    "lng": 100.6374403
  },
  {
    "id": 263,
    "name": "สถานีบริการ LPG บริษัท สยามแก๊ส แอนด์ ปิโตรเคมีคัลส์ จำกัด",
    "address": "51/167 ม.12 ถนนนวลจันทร์ แขวงคลองกุ่ม เขตบึงกุ่ม กรุงเทพ 10240",
    "dcode": "1027",
    "dname": "บึงกุ่ม",
    "tel": "-",
    "type": "LPG",
    "lat": 13.82240277,
    "lng": 100.6423066
  },
  {
    "id": 264,
    "name": "สถานีบริการ LPG บริษัท เอส.พี.พี เซอร์วิส จำกัด",
    "address": "ถนนนวมินทร์ แขวงนวมินทร์ เขตบึงกุ่ม กรุงเทพ 10240",
    "dcode": "1027",
    "dname": "บึงกุ่ม",
    "tel": "-",
    "type": "LPG",
    "lat": 13.78819532,
    "lng": 100.6497339
  },
  {
    "id": 265,
    "name": "สถานีบริการ LPG บริษัท สยามโพธิ์แก้ว จำกัด",
    "address": "106/355 ม.6 ถนนโพธิ์แก้ว แขวงคลองกุ่ม เขตบึงกุ่ม กรุงเทพ 10240",
    "dcode": "1027",
    "dname": "บึงกุ่ม",
    "tel": "-",
    "type": "LPG",
    "lat": 13.80064946,
    "lng": 100.6445404
  },
  {
    "id": 266,
    "name": "สถานีบริการ LPG บริษัท เอ็นเอสแก๊ส แอลพีจี จำกัด",
    "address": "28/103 ม.10 ถนนรัชดา - รามอินทรา แขวงคลองกุ่ม เขตบึงกุ่ม กรุงเทพ 10240",
    "dcode": "1027",
    "dname": "บึงกุ่ม",
    "tel": "-",
    "type": "LPG",
    "lat": 13.81933779,
    "lng": 100.6585549
  },
  {
    "id": 267,
    "name": "สถานีบริการ LPG หจก.ศักดิ์ชัยเซอร์วิสออยล์",
    "address": "92/217 ถนนเสรีไทย แขวงบึงกุ่ม เขตบึงกุ่ม กรุงเทพ 10240",
    "dcode": "1027",
    "dname": "บึงกุ่ม",
    "tel": "-",
    "type": "LPG",
    "lat": 13.77877319,
    "lng": 100.663706
  },
  {
    "id": 268,
    "name": "สถานีบริการ LPG บริษัท น้ำมันสยามมงคล จำกัด",
    "address": "40/642 ม.10 ถนนสุขาภิบาล 1 แขวงคลองกุ่ม เขตบึงกุ่ม กรุงเทพ 10240",
    "dcode": "1027",
    "dname": "บึงกุ่ม",
    "tel": "-",
    "type": "LPG",
    "lat": 13.83044885,
    "lng": 100.6595308
  },
  {
    "id": 269,
    "name": "สถานีบริการ LPG หจก.อุดมสุขแก๊สเซอร์วิส",
    "address": "560 ถนนศรีนครินทร์ แขวงหนองบอน เขตประเวศ กรุงเทพ 10250",
    "dcode": "1032",
    "dname": "ประเวศ",
    "tel": "-",
    "type": "LPG",
    "lat": 13.6758885,
    "lng": 100.6455285
  },
  {
    "id": 270,
    "name": "สถานีบริการ LPG บริษัท สุขใจแก๊ส จำกัด",
    "address": "54/3 ม.2 ถนนสุขุมวิท 103 แขวงหนองบอน เขตประเวศ กรุงเทพ 10250",
    "dcode": "1032",
    "dname": "ประเวศ",
    "tel": "-",
    "type": "LPG",
    "lat": 13.67753686,
    "lng": 100.6436726
  },
  {
    "id": 271,
    "name": "สถานีบริการ LPG บริษัท พรศักดิ์ ปิโตรเลียม จำกัด",
    "address": "382/1 ถนนอ่อนนุช แขวงประเวศ เขตประเวศ กรุงเทพ 10250",
    "dcode": "1032",
    "dname": "ประเวศ",
    "tel": "-",
    "type": "LPG",
    "lat": 13.7209926,
    "lng": 100.6962949
  },
  {
    "id": 272,
    "name": "สถานีบริการ LPG นายศุภรัตน์ เมณฑ์กูล (บจ.พีเอสเอ็ม เอ็นเนอยี่)",
    "address": "551/2 ถนนอ่อนนุช แขวงประเวศ เขตประเวศ กรุงเทพ 10250",
    "dcode": "1032",
    "dname": "ประเวศ",
    "tel": "-",
    "type": "LPG",
    "lat": 13.72092422,
    "lng": 100.6838317
  },
  {
    "id": 273,
    "name": "สถานีบริการ LPG บริษัท เอส ซี จี ประเวศ จำกัด",
    "address": "953 ถนนอ่อนนุช - ลาดกระบัง แขวงประเวศ เขตประเวศ กรุงเทพ 10250",
    "dcode": "1032",
    "dname": "ประเวศ",
    "tel": "-",
    "type": "LPG",
    "lat": 13.72250203,
    "lng": 100.7081029
  },
  {
    "id": 274,
    "name": "สถานีบริการ LPG บริษัท เอ็น เอส แก๊ส แอลพีจี จำกัด",
    "address": "26 ถนนอ่อนนุช - ลาดกระบัง แขวงลาดกระบัง เขตลาดกระบัง กรุงเทพ 10520",
    "dcode": "1011",
    "dname": "ลาดกระบัง",
    "tel": "-",
    "type": "LPG",
    "lat": 13.72188663,
    "lng": 100.7108259
  },
  {
    "id": 275,
    "name": "สถานีบริการ LPG บริษัท เบสท์ เอ็นเนอร์ยี่ พลัส จำกัด",
    "address": "341 ถนนเฉลิมพระเกียรติ ร.9 แขวงหนองบอน เขตประเวศ กรุงเทพ 10250",
    "dcode": "1032",
    "dname": "ประเวศ",
    "tel": "-",
    "type": "LPG",
    "lat": 13.69460915,
    "lng": 100.672329
  },
  {
    "id": 276,
    "name": "สถานีบริการ LPG บริษัท อึ้งกิมเฮง (ปิโตรเลียม 2007) จำกัด",
    "address": "199/89 ถนนวิภาวดีรังสิต แขวงสามเสนใน เขตพญาไท กรุงเทพ 10400",
    "dcode": "1014",
    "dname": "พญาไท",
    "tel": "-",
    "type": "LPG",
    "lat": 13.78613735,
    "lng": 100.5592339
  },
  {
    "id": 277,
    "name": "สถานีบริการ LPG บริษัท เหรียญทองอุตสาหกรรมถังแก๊ส จำกัด",
    "address": "688/1 ถนนเพชรเกษม แขวงบางหว้า เขตภาษีเจริญ กรุงเทพ 10160",
    "dcode": "1022",
    "dname": "ภาษีเจริญ",
    "tel": "-",
    "type": "LPG",
    "lat": 13.71282119,
    "lng": 100.4305825
  },
  {
    "id": 278,
    "name": "สถานีบริการ LPG หจก. เอ เจ แก๊ส",
    "address": "88/2 ถนนเพชรเกษม แขวงปากคลองภาษีเจริญ เขตภาษีเจริญ กรุงเทพ 10160",
    "dcode": "1022",
    "dname": "ภาษีเจริญ",
    "tel": "-",
    "type": "LPG",
    "lat": 13.72429552,
    "lng": 100.4640134
  },
  {
    "id": 279,
    "name": "สถานีบริการ LPG บริษัท ศรีไพบูลย์ ปิโตรเลียม จำกัด",
    "address": "169/10 ถนนเพชรเกษม แขวงปากคลองภาษีเจริญ เขตภาษีเจริญ กรุงเทพ 10160",
    "dcode": "1022",
    "dname": "ภาษีเจริญ",
    "tel": "-",
    "type": "LPG",
    "lat": 13.72400166,
    "lng": 100.4647883
  },
  {
    "id": 280,
    "name": "สถานีบริการ LPG บริษัท พ.เพชรธนวรรณ จำกัด",
    "address": "207 ถนนเพชรเกษม แขวงปากคลองภาษีเจริญ เขตภาษีเจริญ กรุงเทพ 10160",
    "dcode": "1022",
    "dname": "ภาษีเจริญ",
    "tel": "-",
    "type": "LPG",
    "lat": 13.72155141,
    "lng": 100.4602978
  },
  {
    "id": 281,
    "name": "สถานีบริการ LPG บริษัท พี.ที.แก๊ส จำกัด",
    "address": "69 ถนนกัลปพฤกษ์ แขวงบางหว้า เขตภาษีเจริญ กรุงเทพ 10160",
    "dcode": "1022",
    "dname": "ภาษีเจริญ",
    "tel": "-",
    "type": "LPG",
    "lat": 13.70751581,
    "lng": 100.4505954
  },
  {
    "id": 282,
    "name": "สถานีบริการ LPG บริษัท ภูริภัทรปิโตรเลียม (2007) จำกัด",
    "address": "88 ม.13 ถนนสุวินทวงศ์ แขวงมีนบุรี เขตมีนบุรี กรุงเทพ 10510",
    "dcode": "1010",
    "dname": "มีนบุรี",
    "tel": "-",
    "type": "LPG",
    "lat": 13.81511903,
    "lng": 100.7506271
  },
  {
    "id": 283,
    "name": "สถานีบริการ LPG บริษัท อายุบ จำกัด",
    "address": "19/15 ม.2 ถนนสุวินทวงศ์ แขวงลำผักขี เขตหนองจอก กรุงเทพ 10530",
    "dcode": "1003",
    "dname": "หนองจอก",
    "tel": "-",
    "type": "LPG",
    "lat": 13.8097659,
    "lng": 100.8120064
  },
  {
    "id": 284,
    "name": "สถานีบริการ LPG บริษัท สตาร์แก๊ส จำกัด",
    "address": "340 ถนนสุวินทวงศ์ แขวงแสนแสบ เขตมีนบุรี กรุงเทพ 10510",
    "dcode": "1010",
    "dname": "มีนบุรี",
    "tel": "-",
    "type": "LPG",
    "lat": 13.81397235,
    "lng": 100.7605702
  },
  {
    "id": 285,
    "name": "สถานีบริการ LPG บริษัท เบสท์ เอ็นเนอร์ยี่ พลัส จำกัด",
    "address": "23 ถนนสุวินทวงศ์ แขวงมีนบุรี เขตมีนบุรี กรุงเทพ 10510",
    "dcode": "1010",
    "dname": "มีนบุรี",
    "tel": "-",
    "type": "LPG",
    "lat": 13.81310765,
    "lng": 100.7727165
  },
  {
    "id": 286,
    "name": "สถานีบริการ LPG บริษัท เอ็นเอสแก๊ส แอลพีจี จำกัด",
    "address": "151 ถนนร่มเกล้า แขวงแสนแสบ เขตมีนบุรี กรุงเทพ 10510",
    "dcode": "1010",
    "dname": "มีนบุรี",
    "tel": "-",
    "type": "LPG",
    "lat": 13.78942624,
    "lng": 100.7463478
  },
  {
    "id": 287,
    "name": "สถานีบริการ LPG บริษัท แก๊สยิ่งรวย จำกัด",
    "address": "101 ถนนร่มเกล้า แขวงแสนแสบ เขตมีนบุรี กรุงเทพ 10510",
    "dcode": "1010",
    "dname": "มีนบุรี",
    "tel": "-",
    "type": "LPG",
    "lat": 13.79877582,
    "lng": 100.7445307
  },
  {
    "id": 288,
    "name": "สถานีบริการ LPG บริษัท ริชชี่ แก๊ส จำกัด",
    "address": "67 ถนนร่มเกล้า แขวงแสนแสบ เขตมีนบุรี กรุงเทพ 10510",
    "dcode": "1010",
    "dname": "มีนบุรี",
    "tel": "-",
    "type": "LPG",
    "lat": 13.80879291,
    "lng": 100.7390745
  },
  {
    "id": 289,
    "name": "สถานีบริการ LPG นายแสงทวี ธนาดำรงศักดิ์",
    "address": "382 ถนนร่มเกล้า แขวงมีนบุรี เขตมีนบุรี กรุงเทพ 10510",
    "dcode": "1010",
    "dname": "มีนบุรี",
    "tel": "-",
    "type": "LPG",
    "lat": 13.77532071,
    "lng": 100.7458639
  },
  {
    "id": 290,
    "name": "สถานีบริการ LPG บริษัท ธนทรัพย์ ปิโตรแก๊ส รามคำแหง จำกัด",
    "address": "78/1 ถนนรามคำแหง แขวงมีนบุรี เขตมีนบุรี กรุงเทพ 10510",
    "dcode": "1010",
    "dname": "มีนบุรี",
    "tel": "-",
    "type": "LPG",
    "lat": 13.80273695,
    "lng": 100.7224287
  },
  {
    "id": 291,
    "name": "สถานีบริการ LPG บริษัท สตาร์แก๊ส จำกัด",
    "address": "123/1 ถนนรามคำแหง แขวงมีนบุรี เขตมีนบุรี กรุงเทพ 10510",
    "dcode": "1010",
    "dname": "มีนบุรี",
    "tel": "-",
    "type": "LPG",
    "lat": 13.81167186,
    "lng": 100.7345732
  },
  {
    "id": 292,
    "name": "สถานีบริการ LPG บริษัท ปิโตรเลียมไทยคอร์ปอเรชั่น จำกัด",
    "address": "75/10 ม.3 ถนนรามอินทรา แขวงแสนแสบ เขตมีนบุรี กรุงเทพ 10510",
    "dcode": "1010",
    "dname": "มีนบุรี",
    "tel": "-",
    "type": "LPG",
    "lat": 13.81213336,
    "lng": 100.7152003
  },
  {
    "id": 293,
    "name": "สถานีบริการ LPG บริษัท สตาร์แก๊ส จำกัด",
    "address": "306/4 ถนนราษฎร์อุทิศ แขวงแสนแสบ เขตมีนบุรี กรุงเทพ 10510",
    "dcode": "1010",
    "dname": "มีนบุรี",
    "tel": "-",
    "type": "LPG",
    "lat": 13.8372783,
    "lng": 100.7811223
  },
  {
    "id": 294,
    "name": "สถานีบริการ LPG บริษัท ฮาตา ออโต้ แก๊ส จำกัด",
    "address": "38/1 ถนนสุขสวัสดิ์ แขวงราษฎร์บูรณะ เขตราษฎร์บูรณะ กรุงเทพ 10140",
    "dcode": "1024",
    "dname": "ราษฎร์บูรณะ",
    "tel": "-",
    "type": "LPG",
    "lat": 13.67391958,
    "lng": 100.5044878
  },
  {
    "id": 295,
    "name": "สถานีบริการ LPG บริษัท ปิโตรเลียมไทยคอร์ปอเรชั่น จำกัด",
    "address": "620 ถนนประชาอุทิศ แขวงราษฎร์บูรณะ เขตราษฎร์บูรณะ กรุงเทพ 10140",
    "dcode": "1024",
    "dname": "ราษฎร์บูรณะ",
    "tel": "-",
    "type": "LPG",
    "lat": 13.65748177,
    "lng": 100.4991886
  },
  {
    "id": 296,
    "name": "สถานีบริการ LPG บริษัท สยามแก๊ส แอนด์ ปิโตรเคมีคัลล์ จำกัด",
    "address": "467 ถนนประชาอุทิศ แขวงราษฎร์บูรณะ เขตราษฎร์บูรณะ กรุงเทพ 10140",
    "dcode": "1024",
    "dname": "ราษฎร์บูรณะ",
    "tel": "-",
    "type": "LPG",
    "lat": 13.65848661,
    "lng": 100.5004428
  },
  {
    "id": 297,
    "name": "สถานีบริการ LPG บริษัท เบสท์ เอ็นเนอร์ยี่ พลัส จำกัด",
    "address": "596/4 ถนนลาดกระบัง แขวงลาดกระบัง เขตลาดกระบัง กรุงเทพ 10520",
    "dcode": "1011",
    "dname": "ลาดกระบัง",
    "tel": "-",
    "type": "LPG",
    "lat": 13.72210059,
    "lng": 100.7358637
  },
  {
    "id": 298,
    "name": "สถานีบริการ LPG บริษัท สตาร์แก๊ส จำกัด",
    "address": "691/5 ถนนหลวงแพ่ง แขวงทับยาว เขตลาดกระบัง กรุงเทพ 10520",
    "dcode": "1011",
    "dname": "ลาดกระบัง",
    "tel": "-",
    "type": "LPG",
    "lat": 13.71609176,
    "lng": 100.8074672
  },
  {
    "id": 299,
    "name": "สถานีบริการ LPG บริษัท ปิโตรเลียมไทยคอร์ปอเรชั่น จำกัด",
    "address": "15 ถนนเจ้าคุณทหาร แขวงลำปลาทิว เขตลาดกระบัง กรุงเทพ 10520",
    "dcode": "1011",
    "dname": "ลาดกระบัง",
    "tel": "-",
    "type": "LPG",
    "lat": 13.75078977,
    "lng": 100.7900638
  },
  {
    "id": 300,
    "name": "สถานีบริการ LPG บริษัท ปิโตรเลียมไทยคอร์ปอเรชั่น จำกัด",
    "address": "1255/5 ถนนลาดกระบัง แขวงลาดกระบัง เขตลาดกระบัง กรุงเทพ 10520",
    "dcode": "1011",
    "dname": "ลาดกระบัง",
    "tel": "-",
    "type": "LPG",
    "lat": 13.72174283,
    "lng": 100.7885398
  },
  {
    "id": 301,
    "name": "สถานีบริการ LPG บริษัท เจ พี แอล เอนเนอจี จำกัด",
    "address": "123 ถนนร่มเกล้า แขวงคลองสามประเวศ เขตลาดกระบัง กรุงเทพ 10520",
    "dcode": "1011",
    "dname": "ลาดกระบัง",
    "tel": "-",
    "type": "LPG",
    "lat": 13.73936813,
    "lng": 100.7468177
  },
  {
    "id": 302,
    "name": "สถานีบริการ LPG บริษัท เจ พี แอนด์ ซันส์ เอนเนอจี จำกัด",
    "address": "209/1 ถนนร่มเกล้า แขวงคลองสามประเวศ เขตลาดกระบัง กรุงเทพ 10520",
    "dcode": "1011",
    "dname": "ลาดกระบัง",
    "tel": "-",
    "type": "LPG",
    "lat": 13.76601431,
    "lng": 100.7466917
  },
  {
    "id": 303,
    "name": "สถานีบริการ LPG บริษัท เพชรสุวรรณ พลังงาน จำกัด",
    "address": "10 ถนนร่มเกล้า แขวงคลองสามประเวศ เขตลาดกระบัง กรุงเทพ 10520",
    "dcode": "1011",
    "dname": "ลาดกระบัง",
    "tel": "-",
    "type": "LPG",
    "lat": 13.76926418,
    "lng": 100.7459761
  },
  {
    "id": 304,
    "name": "สถานีบริการ LPG บริษัท เอส เอ็น ซี พลัส จำกัด",
    "address": "60 ถนนเคหะร่มเกล้า แขวงคลองสองต้นนุ่น เขตลาดกระบัง กรุงเทพ 10520",
    "dcode": "1011",
    "dname": "ลาดกระบัง",
    "tel": "-",
    "type": "LPG",
    "lat": 13.77379078,
    "lng": 100.7385472
  },
  {
    "id": 305,
    "name": "สถานีบริการ LPG บริษัท ชยพัฒน์ บริการ จำกัด",
    "address": "690 ถนนลาดพร้าว - วังหิน แขวงลาดพร้าว เขตลาดพร้าว กรุงเทพ 10230",
    "dcode": "1038",
    "dname": "ลาดพร้าว",
    "tel": "-",
    "type": "LPG",
    "lat": 13.82254491,
    "lng": 100.5919429
  },
  {
    "id": 306,
    "name": "สถานีบริการ LPG บริษัท มิลเดิลจี จำกัด",
    "address": "361/1 ถนนลาดปลาเค้า แขวงจรเข้บัว เขตลาดพร้าว กรุงเทพ 10230",
    "dcode": "1038",
    "dname": "ลาดพร้าว",
    "tel": "-",
    "type": "LPG",
    "lat": 13.84586574,
    "lng": 100.6016205
  },
  {
    "id": 307,
    "name": "สถานีบริการ LPG บริษัท พลอยไพลินแก๊ส จำกัด",
    "address": "222 ม.1 ถนนเกษตร - นวมินทร์ แขวงจรเข้บัว เขตลาดพร้าว กรุงเทพ 10230",
    "dcode": "1038",
    "dname": "ลาดพร้าว",
    "tel": "-",
    "type": "LPG",
    "lat": 13.84160277,
    "lng": 100.5927756
  },
  {
    "id": 308,
    "name": "สถานีบริการ LPG บมจ.สยามแก๊ส แอนด์ ปิโตเคมีคัลส์",
    "address": "109 ซอยประเสริฐมนูกิจ 15 ถนนเกษตร-นวมินทร์ แขวงจรเข้บัว เขตลาดพร้าว กรุงเทพ 10230",
    "dcode": "1038",
    "dname": "ลาดพร้าว",
    "tel": "-",
    "type": "LPG",
    "lat": 13.83946665,
    "lng": 100.6001614
  },
  {
    "id": 309,
    "name": "สถานีบริการ LPG บริษัท ทับทิมสยามแก๊ส จำกัด",
    "address": "2/39 ม.12 ถนนเกษตร-นวมินทร์ แขวงลาดพร้าว เขตลาดพร้าว กรุงเทพ 10230",
    "dcode": "1038",
    "dname": "ลาดพร้าว",
    "tel": "-",
    "type": "LPG",
    "lat": 13.83062002,
    "lng": 100.6204233
  },
  {
    "id": 310,
    "name": "สถานีบริการ LPG บริษัท 71 นวมินทร์ เซอร์วิส จำกัด",
    "address": "7/78 ม.4 ถนนนาคนิวาส แขวงลาดพร้าว เขตลาดพร้าว กรุงเทพ 10230",
    "dcode": "1038",
    "dname": "ลาดพร้าว",
    "tel": "-",
    "type": "LPG",
    "lat": 13.81528531,
    "lng": 100.6101521
  },
  {
    "id": 311,
    "name": "สถานีบริการ LPG บริษัท จิระณัฏฐ์ จำกัด",
    "address": "35/369 ม.3 ถนนสุคนธสวัสดิ์ แขวงลาดพร้าว เขตลาดพร้าว กรุงเทพ 10230",
    "dcode": "1038",
    "dname": "ลาดพร้าว",
    "tel": "-",
    "type": "LPG",
    "lat": 13.82440739,
    "lng": 100.6098818
  },
  {
    "id": 312,
    "name": "สถานีบริการ LPG บริษัท เอ็น พี เอส แก๊ส จำกัด",
    "address": "17/28 ม.1 ถนนสุคนธสวัสดิ์ แขวงลาดพร้าว เขตลาดพร้าว กรุงเทพ 10230",
    "dcode": "1038",
    "dname": "ลาดพร้าว",
    "tel": "-",
    "type": "LPG",
    "lat": 13.83549487,
    "lng": 100.6295315
  },
  {
    "id": 313,
    "name": "สถานีบริการ LPG บมจ. สยามแก๊ส แอนด์ ปิโตรเคมีคัลส์",
    "address": "578 ถนนประดิษฐ์มนูญธรรม แขวงพลับพลา เขตวังทองหลาง กรุงเทพ 10310",
    "dcode": "1045",
    "dname": "วังทองหลาง",
    "tel": "-",
    "type": "LPG",
    "lat": 13.78195273,
    "lng": 100.6082958
  },
  {
    "id": 314,
    "name": "สถานีบริการ LPG บริษัท ยงลี จำกัด",
    "address": "413 ถนนประดิษฐ์มนูญธรรม แขวงวังทองหลาง เขตวังทองหลาง กรุงเทพ 10310",
    "dcode": "1045",
    "dname": "วังทองหลาง",
    "tel": "-",
    "type": "LPG",
    "lat": 13.77453631,
    "lng": 100.6062105
  },
  {
    "id": 315,
    "name": "สถานีบริการ LPG บมจ. สยามแก๊ส แอนด์ ปิโตรเคมีคัลส์",
    "address": "1 ถนนลาดพร้าา ซอย 124 แขวงพลับพลา เขตวังทองหลาง กรุงเทพ 10310",
    "dcode": "1045",
    "dname": "วังทองหลาง",
    "tel": "-",
    "type": "LPG",
    "lat": 13.77636687,
    "lng": 100.626143
  },
  {
    "id": 316,
    "name": "สถานีบริการ LPG บมจ. สยามแก๊ส แอนด์ ปิโตรเคมีคัลส์",
    "address": "2501 ถนนลาดพร้าา แขวงคลองเจ้าคุณสิงห์ เขตวังทองหลาง กรุงเทพ 10310",
    "dcode": "1045",
    "dname": "วังทองหลาง",
    "tel": "-",
    "type": "LPG",
    "lat": 13.78614581,
    "lng": 100.609832
  },
  {
    "id": 317,
    "name": "สถานีบริการ LPG บริษัท ตั้งศรีศิริโชค จำกัด",
    "address": "24/36 ม.4 ถนนรามคำแหง แขวงสะพานสูง เขตสะพานสูง กรุงเทพ 10240",
    "dcode": "1044",
    "dname": "สะพานสูง",
    "tel": "-",
    "type": "LPG",
    "lat": 13.78858653,
    "lng": 100.6932399
  },
  {
    "id": 318,
    "name": "สถานีบริการ LPG บริษัท เปี่ยมสิริ คอนสตรัคชั่น จำกัด",
    "address": "341 ถนนรามคำแหง แขวงสะพานสูง เขตสะพานสูง กรุงเทพ 10240",
    "dcode": "1044",
    "dname": "สะพานสูง",
    "tel": "-",
    "type": "LPG",
    "lat": 13.79250118,
    "lng": 100.7009626
  },
  {
    "id": 319,
    "name": "สถานีบริการ LPG บริษัท ทอแสงทองปิโตรเลียม จำกัด",
    "address": "124 ถนนรามคำแหง แขวงสะพานสูง เขตสะพานสูง กรุงเทพ 10240",
    "dcode": "1044",
    "dname": "สะพานสูง",
    "tel": "-",
    "type": "LPG",
    "lat": 13.77899459,
    "lng": 100.6776901
  },
  {
    "id": 320,
    "name": "สถานีบริการ LPG บริษัท รามคำแหง แก๊ส แอนด์ ออยล์ จำกัด",
    "address": "63 ถนนรามคำแหง แขวงสะพานสูง เขตสะพานสูง กรุงเทพ 10240",
    "dcode": "1044",
    "dname": "สะพานสูง",
    "tel": "-",
    "type": "LPG",
    "lat": 13.77530376,
    "lng": 100.670164
  },
  {
    "id": 321,
    "name": "สถานีบริการ LPG บริษัท ซัมโก เซอร์วิส จำกัด",
    "address": "205 ถนนมอเตอร์เวย์ แขวงสะพานสูง เขตสะพานสูง กรุงเทพ 10240",
    "dcode": "1044",
    "dname": "สะพานสูง",
    "tel": "-",
    "type": "LPG",
    "lat": 13.73379009,
    "lng": 100.6977923
  },
  {
    "id": 322,
    "name": "สถานีบริการ LPG หจก. วัฒนาออโต้แก๊ส",
    "address": "2204 ถนนเพชรบุรีตัดใหม่ แขวงบางกระปิ เขตห้วยขวาง กรุงเทพ 10310",
    "dcode": "1017",
    "dname": "ห้วยขวาง",
    "tel": "-",
    "type": "LPG",
    "lat": 13.74547147,
    "lng": 100.5803154
  },
  {
    "id": 323,
    "name": "สถานีบริการ LPG บริษัท ส.รุ่งเฉลิม จำกัด",
    "address": "2359 ถนนเพชรบุรีตัดใหม่ แขวงบางกระปิ เขตห้วยขวาง กรุงเทพ 10310",
    "dcode": "1017",
    "dname": "ห้วยขวาง",
    "tel": "-",
    "type": "LPG",
    "lat": 13.74438683,
    "lng": 100.587345
  },
  {
    "id": 324,
    "name": "สถานีบริการ LPG บริษัท ก.ถิ่นทอง จำกัด",
    "address": "63 ถนนเพชรอุทัย แขวงบางกระปิ เขตห้วยขวาง กรุงเทพ 10310",
    "dcode": "1017",
    "dname": "ห้วยขวาง",
    "tel": "-",
    "type": "LPG",
    "lat": 13.75096458,
    "lng": 100.569413
  },
  {
    "id": 325,
    "name": "สถานีบริการ LPG บริษัท อ.ก๊าซ จำกัด",
    "address": "580 ถนนประชาอุทิศ แขวงห้วยขวาง เขตห้วยขวาง กรุงเทพ 10310",
    "dcode": "1017",
    "dname": "ห้วยขวาง",
    "tel": "-",
    "type": "LPG",
    "lat": 13.77115904,
    "lng": 100.5833732
  },
  {
    "id": 326,
    "name": "สถานีบริการ LPG บริษัท โกลด์สตาร์ (ไทย) จำกัด",
    "address": "2960 ถนนประชาสงเคราะห์ แขวงดินแดง เขตห้วยขวาง กรุงเทพ 10400",
    "dcode": "1017",
    "dname": "ห้วยขวาง",
    "tel": "-",
    "type": "LPG",
    "lat": 13.77511044,
    "lng": 100.5647928
  },
  {
    "id": 327,
    "name": "สถานีบริการ LPG บริษัท ลันด้า จำกัด",
    "address": "99/114 ถนนแจ้งวัฒนะ แขวงทุ่งสองห้อง เขตหลักสี่ กรุงเทพ 10210",
    "dcode": "1041",
    "dname": "หลักสี่",
    "tel": "-",
    "type": "LPG",
    "lat": 13.88933411,
    "lng": 100.5723941
  },
  {
    "id": 328,
    "name": "สถานีบริการ LPG บริษัท ส.รุ่งวิภา จำกัด",
    "address": "201/17 ถนนวิภาวดีรังสิต แขวงตลาดบางเขน เขตหลักสี่ กรุงเทพ 10210",
    "dcode": "1041",
    "dname": "หลักสี่",
    "tel": "-",
    "type": "LPG",
    "lat": 13.8864409,
    "lng": 100.5836995
  },
  {
    "id": 329,
    "name": "สถานีบริการ LPG บริษัท พี วี แก๊ส จำกัด",
    "address": "1003 ถนนพระราม 9 แขวงสวนหลวง เขตสวนหลวง กรุงเทพ 10250",
    "dcode": "1034",
    "dname": "สวนหลวง",
    "tel": "-",
    "type": "LPG",
    "lat": 13.74133769,
    "lng": 100.62665
  },
  {
    "id": 330,
    "name": "สถานีบริการ LPG บริษัท เอ็น เอ พี กรุ๊ป จำกัด",
    "address": "1191 ถนนพระราม 9 แขวงสวนหลวง เขตสวนหลวง กรุงเทพ 10250",
    "dcode": "1034",
    "dname": "สวนหลวง",
    "tel": "-",
    "type": "LPG",
    "lat": 13.74292459,
    "lng": 100.6340859
  },
  {
    "id": 331,
    "name": "สถานีบริการ LPG บริษัท ปิโตรเลียมไทยคอร์ปอเรชั่น จำกัด",
    "address": "2302 ถนนกรุงเทพ - ชลบุรี แขวงสวนหลวง เขตสวนหลวง กรุงเทพ 10250",
    "dcode": "1034",
    "dname": "สวนหลวง",
    "tel": "-",
    "type": "LPG",
    "lat": 13.73937228,
    "lng": 100.6490311
  },
  {
    "id": 332,
    "name": "สถานีบริการ LPG บมจ.สยามแก๊ส แอนด์ ปิโตรเคมีคัลส์",
    "address": "935 ถนนศรีนครินทร์ แขวงสวนหลวง เขตสวนหลวง กรุงเทพ 10250",
    "dcode": "1034",
    "dname": "สวนหลวง",
    "tel": "-",
    "type": "LPG",
    "lat": 13.71078506,
    "lng": 100.6445601
  },
  {
    "id": 333,
    "name": "สถานีบริการ LPG บริษัท กรติมา แอลพีจี จำกัด",
    "address": "1917 ถนนอ่อนนุช แขวงสวนหลวง เขตสวนหลวง กรุงเทพ 10250",
    "dcode": "1034",
    "dname": "สวนหลวง",
    "tel": "-",
    "type": "LPG",
    "lat": 13.71096848,
    "lng": 100.6346227
  },
  {
    "id": 334,
    "name": "สถานีบริการ LPG บริษัท เวิลด์แก๊สเซอร์วิส (2555) จำกัด",
    "address": "1348 ถนนศรีนครินทร์ แขวงสวนหลวง เขตสวนหลวง กรุงเทพ 10250",
    "dcode": "1034",
    "dname": "สวนหลวง",
    "tel": "-",
    "type": "LPG",
    "lat": 13.70557423,
    "lng": 100.6452264
  },
  {
    "id": 335,
    "name": "สถานีบริการ LPG บริษัท ธนพัฒน์ ออโต้ เซ็นเตอร์ จำกัด",
    "address": "45/36 ม.3 ถนนวัชรพล แขวงคลองถนน เขตสายไหม กรุงเทพ 10220",
    "dcode": "1042",
    "dname": "สายไหม",
    "tel": "-",
    "type": "LPG",
    "lat": 13.90020434,
    "lng": 100.6375704
  },
  {
    "id": 336,
    "name": "สถานีบริการ LPG นายภัทรพล เลาวณิชกุล(บจ.ทรัพย์อนันต แอลพีจี)",
    "address": "268 ม.2 ถนนสุขาภิบาล 5 แขวงออเงิน เขตสายไหม กรุงเทพ 10220",
    "dcode": "1042",
    "dname": "สายไหม",
    "tel": "-",
    "type": "LPG",
    "lat": 13.91012265,
    "lng": 100.6744394
  },
  {
    "id": 337,
    "name": "สถานีบริการ LPG หจก. ทรัพย์ไพศาล วัชรพลแก๊ส",
    "address": "19/9 ม.2 ถนนสุขาภิบาล 5 แขวงออเงิน เขตสายไหม กรุงเทพ 10220",
    "dcode": "1042",
    "dname": "สายไหม",
    "tel": "-",
    "type": "LPG",
    "lat": 13.91480978,
    "lng": 100.6802656
  },
  {
    "id": 338,
    "name": "สถานีบริการ LPG บมจ. สยามแก๊ส แอนด์ ปิโตรเคมีคัลส์",
    "address": "85/8 ม.1 ถนนสุขาภิบาล 5 แขวงสายไหม เขตสายไหม กรุงเทพ 10220",
    "dcode": "1042",
    "dname": "สายไหม",
    "tel": "-",
    "type": "LPG",
    "lat": 13.92012247,
    "lng": 100.6857912
  },
  {
    "id": 339,
    "name": "สถานีบริการ LPG บริษัท วีพีเอ็น ปิโตรเลียม จำกัด",
    "address": "172/2 ม.2 ถนนสายไหม แขวงสายไหม เขตสายไหม กรุงเทพ 10220",
    "dcode": "1042",
    "dname": "สายไหม",
    "tel": "-",
    "type": "LPG",
    "lat": 13.92041921,
    "lng": 100.6662965
  },
  {
    "id": 340,
    "name": "สถานีบริการ LPG บริษัท พี แอนด์ เอส ซุปเปอร์ แก๊ส จำกัด",
    "address": "888 ม.2 ถนนสายไหม แขวงสายไหม เขตสายไหม กรุงเทพ 10220",
    "dcode": "1042",
    "dname": "สายไหม",
    "tel": "-",
    "type": "LPG",
    "lat": 13.92163062,
    "lng": 100.6409506
  },
  {
    "id": 341,
    "name": "สถานีบริการ LPG บมจ. สยามแก๊ส แอนด์ ปิโตรเคมีคัลส์",
    "address": "2/2 ม.6 ถนนพหลโยธิน แขวงสายไหม เขตสายไหม กรุงเทพ 10220",
    "dcode": "1042",
    "dname": "สายไหม",
    "tel": "-",
    "type": "LPG",
    "lat": 13.93779005,
    "lng": 100.6250549
  },
  {
    "id": 342,
    "name": "สถานีบริการ LPG บริษัท ธนดีชูโชค จำกัด",
    "address": "271 ถนนจันทน์ แขวงทุ่งวัดดอน เขตสาทร กรุงเทพ 10120",
    "dcode": "1028",
    "dname": "สาทร",
    "tel": "-",
    "type": "LPG",
    "lat": 13.70717056,
    "lng": 100.5215724
  },
  {
    "id": 343,
    "name": "สถานีบริการ LPG บริษัท สุรีย์กุลปิโตรเลียม จำกัด",
    "address": "1249 ถนนจันทน์ แขวงทุ่งวัดดอน เขตสาทร กรุงเทพ 10120",
    "dcode": "1028",
    "dname": "สาทร",
    "tel": "-",
    "type": "LPG",
    "lat": 13.70674921,
    "lng": 100.5254066
  },
  {
    "id": 344,
    "name": "สถานีบริการ LPG บริษัท เอส.ที.ออยล์ไทยโฮลดิ้ง จำกัด",
    "address": "1675/6 ถนนจันทน์ แขวงทุ่งวัดดอน เขตสาทร กรุงเทพ 10120",
    "dcode": "1028",
    "dname": "สาทร",
    "tel": "-",
    "type": "LPG",
    "lat": 13.70654843,
    "lng": 100.5359359
  },
  {
    "id": 345,
    "name": "สถานีบริการ LPG บริษัท นราธิวาส เซอร์วิส จำกัด",
    "address": "186 ถนนนราธิวาสราชนครินทร์ แขวงทุ่งวัดดอน เขตสาทร กรุงเทพ 10120",
    "dcode": "1028",
    "dname": "สาทร",
    "tel": "-",
    "type": "LPG",
    "lat": 13.70757278,
    "lng": 100.5369226
  },
  {
    "id": 346,
    "name": "สถานีบริการ LPG บริษัท เคโอเอส ชัยคม จำกัด",
    "address": "33/3 ม.11 ถนนพุทธมณฑลสาย 3 แขวงหนองค้างพลู เขตหนองแขม กรุงเทพ 10160",
    "dcode": "1023",
    "dname": "หนองแขม",
    "tel": "-",
    "type": "LPG",
    "lat": 13.70780767,
    "lng": 100.3643876
  },
  {
    "id": 347,
    "name": "สถานีบริการ LPG บริษัท เอ็ม.เอส. ปิโตรเลียม จำกัด",
    "address": "33 ถนนพุทธมณฑลสาย 3 แขวงหนองค้างพลู เขตหนองแขม กรุงเทพ 10160",
    "dcode": "1023",
    "dname": "หนองแขม",
    "tel": "-",
    "type": "LPG",
    "lat": 13.7126929,
    "lng": 100.3637223
  },
  {
    "id": 348,
    "name": "สถานีบริการ LPG บมจ. สยามแก๊ส แอนด์ ปิโตรเคมีคัลส์",
    "address": "8 ถนนเพขรเกษม แขวงหนองค้างพลู เขตหนองแขม กรุงเทพ 10160",
    "dcode": "1023",
    "dname": "หนองแขม",
    "tel": "-",
    "type": "LPG",
    "lat": 13.7080331,
    "lng": 100.3710276
  },
  {
    "id": 349,
    "name": "สถานีบริการ LPG บริษัท ทรัพย์มั่นคง ปิโตรเลียม จำกัด",
    "address": "61 ม.12 ถนนเพขรเกษม แขวงหนองค้างพลู เขตหนองแขม กรุงเทพ 10160",
    "dcode": "1023",
    "dname": "หนองแขม",
    "tel": "-",
    "type": "LPG",
    "lat": 13.70679953,
    "lng": 100.3652417
  },
  {
    "id": 350,
    "name": "สถานีบริการ LPG บริษัท ทองธาราปิโตรเลียม จำกัด",
    "address": "374/1 ถนนเลียบคลองภาษีเจริญฝั่งเหนือ แขวงหนองแขม เขตหนองแขม กรุงเทพ 10160",
    "dcode": "1023",
    "dname": "หนองแขม",
    "tel": "-",
    "type": "LPG",
    "lat": 13.68179741,
    "lng": 100.3466533
  },
  {
    "id": 351,
    "name": "สถานีบริการ LPG บริษัท 8 กันยา จำกัด",
    "address": "95/2 ถนนมาเจริญ แขวงหนองแขม เขตหนองแขม กรุงเทพ 10160",
    "dcode": "1023",
    "dname": "หนองแขม",
    "tel": "-",
    "type": "LPG",
    "lat": 13.68499461,
    "lng": 100.3438702
  },
  {
    "id": 352,
    "name": "สถานีบริการ LPG บริษัท ธนบุรีเซ็นเตอร์กรุ๊ฟ จำกัด",
    "address": "541 ถนนมาเจริญ แขวงหนองแขม เขตหนองแขม กรุงเทพ 10160",
    "dcode": "1023",
    "dname": "หนองแขม",
    "tel": "-",
    "type": "LPG",
    "lat": 13.66814856,
    "lng": 100.3496912
  },
  {
    "id": 353,
    "name": "สถานีบริการ LPG บริษัท ลิปดาธร จำกัด",
    "address": "93/3 ม.9 ถนนฉลองกรุง แขวงลำผักชี เขตหนองจอก กรุงเทพ 10530",
    "dcode": "1003",
    "dname": "หนองจอก",
    "tel": "-",
    "type": "LPG",
    "lat": 13.80090408,
    "lng": 100.8345307
  },
  {
    "id": 354,
    "name": "สถานีบริการ LPG บริษัท ปิโตรเลียมไทนคอร์ปอเรชั่น จำกัด",
    "address": "43 ม.3 ถนนฉลองกรุง แขวงลำผักชี เขตหนองจอก กรุงเทพ 10530",
    "dcode": "1003",
    "dname": "หนองจอก",
    "tel": "-",
    "type": "LPG",
    "lat": 13.80002952,
    "lng": 100.8330349
  },
  {
    "id": 355,
    "name": "สถานีบริการ LPG บริษัท ฐานิตา การปิโตรเลียม จำกัด",
    "address": "56/3 ม.6 ถนนฉลองกรุง แขวงลำผักชี เขตหนองจอก กรุงเทพ 10530",
    "dcode": "1003",
    "dname": "หนองจอก",
    "tel": "-",
    "type": "LPG",
    "lat": 13.78953093,
    "lng": 100.8264797
  },
  {
    "id": 356,
    "name": "สถานีบริการ LPG บริษัท รุ่งเรือง ร่ำรวย รุ่งโรจน์ จำกัด",
    "address": "56/4 ม.6 ถนนฉลองกรุง แขวงลำผักชี เขตหนองจอก กรุงเทพ 10530",
    "dcode": "1003",
    "dname": "หนองจอก",
    "tel": "-",
    "type": "LPG",
    "lat": 13.7885401,
    "lng": 100.8260282
  },
  {
    "id": 357,
    "name": "สถานีบริการ LPG บริษัท สตาร์แก๊ส จำกัด",
    "address": "79/2 ม.9 ถนนเชื่อมสัมพันธ์ แขวงลำผักชี เขตหนองจอก กรุงเทพ 10530",
    "dcode": "1003",
    "dname": "หนองจอก",
    "tel": "-",
    "type": "LPG",
    "lat": 13.81485904,
    "lng": 100.8417334
  },
  {
    "id": 358,
    "name": "สถานีบริการ LPG บริษัท ทรัพย์เจริญวงศ์ แก๊ส จำกัด",
    "address": "14/161 ม.6 ถนนเชื่อมสัมพันธ์ แขวงโคกแฝด เขตหนองจอก กรุงเทพ 10530",
    "dcode": "1003",
    "dname": "หนองจอก",
    "tel": "-",
    "type": "LPG",
    "lat": 13.81990758,
    "lng": 100.8446309
  },
  {
    "id": 359,
    "name": "สถานีบริการ LPG บริษัท อัครวัฒน์แก๊ส จำกัด",
    "address": "43/1 ม.17 ถนนสุวินทวงศ์ แขวงกระทุ่มราย ขตหนองจอก กรุงเทพ 10530",
    "dcode": "1003",
    "dname": "หนองจอก",
    "tel": "-",
    "type": "LPG",
    "lat": 13.8105049,
    "lng": 100.9204835
  },
  {
    "id": 360,
    "name": "สถานีบริการ LPG บริษัท รุ่งอรุณแก๊ส จำกัด",
    "address": "17/11 ม.2 ถนนมิตรไมตรี แขวงคู้ฝั่งเหนือ เขตหนองจอก กรุงเทพ 10530",
    "dcode": "1003",
    "dname": "หนองจอก",
    "tel": "-",
    "type": "LPG",
    "lat": 13.85490902,
    "lng": 100.8159541
  },
  {
    "id": 361,
    "name": "สถานีบริการ LPG บริษัท ซีซีทีแก๊ส แอลพีจี จำกัด",
    "address": "86/2 ม.9 ถนนสุวินทวงศ์ แขวงลำผักชี ขตหนองจอก กรุงเทพ 10530",
    "dcode": "1003",
    "dname": "หนองจอก",
    "tel": "-",
    "type": "LPG",
    "lat": 13.80720743,
    "lng": 100.8400549
  },
  {
    "id": 362,
    "name": "สถานีบริการ LPG บริษัท ดราก้อน เอ็นเนอร์จี จำกัด",
    "address": "81/127 ม.9 ถนนสุวินทวงศ์ แขวงลำผักชี ขตหนองจอก กรุงเทพ 10530",
    "dcode": "1003",
    "dname": "หนองจอก",
    "tel": "-",
    "type": "LPG",
    "lat": 13.80459605,
    "lng": 100.8591777
  },
  {
    "id": 363,
    "name": "สถานีบริการ LPG บริษัท น้ำหทัยราษฎร์ปิโตรเลียม จำกัด",
    "address": "9 ถนนหทัยราษฎร์ แขวงบางชัน เขตคลองสามวา กรุงเทพ 10510",
    "dcode": "1046",
    "dname": "คลองสามวา",
    "tel": "-",
    "type": "LPG",
    "lat": 13.83216797,
    "lng": 100.7196111
  },
  {
    "id": 364,
    "name": "สถานีบริการ LPG บริษัท เอส เอ็น ซี ทู จำกัด",
    "address": "1122 ถนนนิมิตรใหม่ แขวงทรายกองดิน เขตคลองสามวา กรุงเทพ 10510",
    "dcode": "1046",
    "dname": "คลองสามวา",
    "tel": "-",
    "type": "LPG",
    "lat": 13.85394079,
    "lng": 100.7312788
  },
  {
    "id": 365,
    "name": "สถานีบริการ LPG บริษัท โมเดิร์น บิส จำกัด",
    "address": "277 ถนนพระยาสุเรนทร แขวงบางชัน เขตคลองสามวา กรุงเทพ 10510",
    "dcode": "1046",
    "dname": "คลองสามวา",
    "tel": "-",
    "type": "LPG",
    "lat": 13.82046957,
    "lng": 100.6992231
  },
  {
    "id": 366,
    "name": "สถานีบริการ LPG บริษัท แก๊สดี จำกัด",
    "address": "120/1 ถนนพุทธบูชา แขวงบางมด เขตจอมทอง กรุงเทพ 10150",
    "dcode": "1035",
    "dname": "จอมทอง",
    "tel": "-",
    "type": "LPG",
    "lat": 13.67117753,
    "lng": 100.4703591
  },
  {
    "id": 367,
    "name": "สถานีบริการก๊าซธรรมชาติ บริษัท ชัยพัฒนาบริการ จำกัด",
    "address": "18/11 ถนนกัลปพฤกษ์ แขวงบางขุนเทียน เขตจอมทอง กรุงเทพ 10150",
    "dcode": "1035",
    "dname": "จอมทอง",
    "tel": "-",
    "type": "NGV",
    "lat": 13.69918982,
    "lng": 100.4398473
  },
  {
    "id": 368,
    "name": "สถานีบริการก๊าชธรรมชาติ บริษัท เอสเอ็มพี เอ็นจีวี จำกัด",
    "address": "53,53/1 ถนนวิภาวดีรังสิต แขวงสนามบิน เขตดอนเมือง กรุงเทพ 10200",
    "dcode": "1036",
    "dname": "ดอนเมือง",
    "tel": "-",
    "type": "NGV",
    "lat": 13.93468711,
    "lng": 100.6091161
  },
  {
    "id": 369,
    "name": "สถานีบริการ LPG บริษัท ก้าวไกลแก๊ส จำกัด",
    "address": "689/1 ถนนพระราม 2 แขวงแสมดำ เขตบางขุนเทียน กรุงเทพฯ 10150",
    "dcode": "1021",
    "dname": "บางขุนเทียน",
    "tel": "-",
    "type": "LPG",
    "lat": 13.61961585,
    "lng": 100.3885397
  },
  {
    "id": 370,
    "name": "สถานีบริการก๊าซธรรมชาติ ปตท. สาขาสยาม เอ็น เอส ปิโตรเลียม",
    "address": "438/1 ม.18 ถนนพระราม 2 แขวงแสมดำ เขตบางขุนเทียน กรุงเทพฯ 10150",
    "dcode": "1021",
    "dname": "บางขุนเทียน",
    "tel": "-",
    "type": "NGV",
    "lat": 13.63761648,
    "lng": 100.4058281
  },
  {
    "id": 371,
    "name": "สถานีบริการ LPG บริษัท ธวัชชัย แอล.พี.จี (บางขุนเทียน) จำกัด",
    "address": "504 ถนนพระราม 2 แขวงแสมดำ เขตบางขุนเทียน กรุงเทพฯ 10150",
    "dcode": "1021",
    "dname": "บางขุนเทียน",
    "tel": "-",
    "type": "LPG",
    "lat": 13.63993545,
    "lng": 100.4065813
  },
  {
    "id": 372,
    "name": "สถานีบริการ LPG บริษัท เบสท์ เอ็นเนอร์ยี่ พลัส จำกัด",
    "address": "623/1 ถนนพระราม 2 แขวงแสมดำ เขตบางขุนเทียน กรุงเทพฯ 10150",
    "dcode": "1021",
    "dname": "บางขุนเทียน",
    "tel": "-",
    "type": "LPG",
    "lat": 13.61724727,
    "lng": 100.3853187
  },
  {
    "id": 373,
    "name": "สถานีบริการ LPG บริษัท เหรียญทองอุตสาหกรรมถังแก๊ส จำกัด",
    "address": "ถนนพระราม 2 แขวงแสมดำ เขตบางขุนเทียน กรุงเทพฯ 10150",
    "dcode": "1021",
    "dname": "บางขุนเทียน",
    "tel": "-",
    "type": "LPG",
    "lat": 13.66426201,
    "lng": 100.4395887
  },
  {
    "id": 374,
    "name": "สถานีบริการก๊าซธรรมชาติ บริษัท ธีระชัย ก๊าซธรรมชาติ จำกัด",
    "address": "145/1-2 ถนนบางขุนเทียน-ชายทะเล แขวงแสมดำ เขตบางขุนเทียน กรุงเทพ 10150",
    "dcode": "1021",
    "dname": "บางขุนเทียน",
    "tel": "-",
    "type": "NGV",
    "lat": 13.65287686,
    "lng": 100.4309322
  },
  {
    "id": 375,
    "name": "สถานีบริการก๊าชธรรมชาติ บริษัท ซัสโก้ จำกัด (มหาชน) สาขาลาซาล",
    "address": "467 ถนน ลาซาล แขวง บางนา เขตบางนา กรุงเทพมหานคร 10260",
    "dcode": "1047",
    "dname": "บางนา",
    "tel": "-",
    "type": "NGV",
    "lat": 13.66293849,
    "lng": 100.6148614
  },
  {
    "id": 376,
    "name": "สถานีบริการก๊าชธรรมชาติ บริษัท ซัสโก้ จำกัด (มหาชน) สาขาสุขาภิบาล 2",
    "address": "12/2 ม.2 ถนนเสรีไทย แขวงคลองกุ่ม เขตบึงกุ่ม กรุงเทพมหานคร 10240",
    "dcode": "1027",
    "dname": "บึงกุ่ม",
    "tel": "-",
    "type": "NGV",
    "lat": 13.77768597,
    "lng": 100.6640867
  },
  {
    "id": 377,
    "name": "สถานีบริการก๊าซธรรมชาติ บริษัท ธนาวรรณคาร์แก๊ส จำกัด",
    "address": "27/151 ถนนนวมินทร์ แขวงคลองกุ่ม เขตบึงกุ่ม, เขต บึงกุ่ม กรุงเทพมหานคร 10240",
    "dcode": "1027",
    "dname": "บึงกุ่ม",
    "tel": "-",
    "type": "NGV",
    "lat": 13.81168251,
    "lng": 100.6504262
  },
  {
    "id": 378,
    "name": "สถานีบริการก๊าซธรรมชาติ ปตท. สาขาวรปภา",
    "address": "1/707 ซอย นวลจันทร์ 29 แขวง คลองกุ่ม เขต บึงกุ่ม กรุงเทพมหานคร 10240",
    "dcode": "1027",
    "dname": "บึงกุ่ม",
    "tel": "-",
    "type": "NGV",
    "lat": 13.81352808,
    "lng": 100.6474887
  },
  {
    "id": 379,
    "name": "สถานีบริการก๊าซธรรมชาติ บริษัท ภัทรผล เอ็นจีวี จำกัด",
    "address": "4/903 ม.8 ซอย วัดทุ่งเศรษฐี แขวง ดอกไม้ เขต ประเวศ กรุงเทพมหานคร 10250",
    "dcode": "1032",
    "dname": "ประเวศ",
    "tel": "-",
    "type": "NGV",
    "lat": 13.67102987,
    "lng": 100.6892259
  },
  {
    "id": 380,
    "name": "สถานีบริการก๊าซธรรมชาติ บริษัท เอ็นเอสแก๊ส แอลพีจี จำกัด",
    "address": "127 ถ.รามคำแหง แขวงแสนแสบ เขตมีนบุรี กรุงเทพฯ 10510",
    "dcode": "1010",
    "dname": "มีนบุรี",
    "tel": "-",
    "type": "NGV",
    "lat": 13.81403093,
    "lng": 100.7384012
  },
  {
    "id": 381,
    "name": "สถานีบริการก๊าชธรรมชาติ ปตท. สาขาเอเชียมีนบุรี",
    "address": "78/2 ถ.รามคำแหง แขวงมีนบุรี เขตมีนบุรี กรุงเทพฯ 10510",
    "dcode": "1010",
    "dname": "มีนบุรี",
    "tel": "-",
    "type": "NGV",
    "lat": 13.80153,
    "lng": 100.7218279
  },
  {
    "id": 382,
    "name": "สถานีบริการ LPG บริษัท เบสท์ เอ็นเนอร์ยี่ พลัส จำกัด",
    "address": "300 ถ.สุวินทวงศ์ แขวงแสนแสบ เขตมีนบุรี กรุงเทพฯ 10510",
    "dcode": "1010",
    "dname": "มีนบุรี",
    "tel": "-",
    "type": "LPG",
    "lat": 13.81452302,
    "lng": 100.7581419
  },
  {
    "id": 383,
    "name": "สถานีบริการ LPG บริษัท เอส.ที.ออยล์ไทยโฮลดิ้ง จำกัด (สาขา2)",
    "address": "ถ.นางลิ้นจี่ แขวงช่องนนทรี เขตยานนาวา กรุงเทพฯ 10120",
    "dcode": "1012",
    "dname": "ยานนาวา",
    "tel": "-",
    "type": "LPG",
    "lat": 13.71003448,
    "lng": 100.5422455
  },
  {
    "id": 384,
    "name": "สถานีบริการ LPG บริษัท สุขสวัสดิ์ พลังงาน จำกัด",
    "address": "60/1 ถนนสุขสวัสดิ์ แขวงราษฎร์บูรณะ เขตราษฎร์บูรณะ กรุงเทพ 10140",
    "dcode": "1024",
    "dname": "ราษฎร์บูรณะ",
    "tel": "-",
    "type": "LPG",
    "lat": 13.67318191,
    "lng": 100.5053891
  },
  {
    "id": 385,
    "name": "สถานีบริการ LPG บริษัท ศรีวงศ์แก๊ส จำกัด",
    "address": "223 ถนนหลวงแพ่ง แขวงขุมทอง เขตลาดกระบัง กรุงเทพ 10520",
    "dcode": "1011",
    "dname": "ลาดกระบัง",
    "tel": "-",
    "type": "LPG",
    "lat": 13.6957751,
    "lng": 100.8573392
  },
  {
    "id": 386,
    "name": "สถานีบริการ LPG บริษัท ธัญสถิต จำกัด",
    "address": "1 ถนนร่มเกล้า แขวงคลองสามประเวศ เขตลาดกระบัง กรุงเทพ 10520",
    "dcode": "1011",
    "dname": "ลาดกระบัง",
    "tel": "-",
    "type": "LPG",
    "lat": 13.75149877,
    "lng": 100.7466672
  },
  {
    "id": 387,
    "name": "สถานีบริการ LPG บริษัท ซีทีจี เซอร์วิส จำกัด",
    "address": "41 ถนนเจ้าคุณทหารลาดกระบัง แขวง ลำปลาทิว เขตลาดกระบัง กรุงเทพมหานคร",
    "dcode": "1011",
    "dname": "ลาดกระบัง",
    "tel": "-",
    "type": "LPG",
    "lat": 13.75159725,
    "lng": 100.7821552
  },
  {
    "id": 388,
    "name": "สถานีบริการ LPG บริษัท ปิโตรเลียมไทยคอร์ปอเรชั่น จำกัด",
    "address": "3395/4 ถนนพระราม 9 แขวงสวนหลวง เขตสวนหลวง กรุงเทพ 10250",
    "dcode": "1034",
    "dname": "สวนหลวง",
    "tel": "-",
    "type": "LPG",
    "lat": 13.74070983,
    "lng": 100.647709
  },
  {
    "id": 389,
    "name": "สถานีบริการ LPG บริษัท อัครชัย จำกัด",
    "address": "1/126 ม.9 ถนนสุวินทวงศ์ แขวงลำผักชี ขตหนองจอก กรุงเทพ 10530",
    "dcode": "1003",
    "dname": "หนองจอก",
    "tel": "-",
    "type": "LPG",
    "lat": 13.80917084,
    "lng": 100.8203623
  },
  {
    "id": 390,
    "name": "สถานีบริการ LPG บริษัท เอ็นเอสแก๊ส แอลพีจี จำกัด",
    "address": "94/5 ม.9 ถนนฉลองกรุง แขวงลำผักชี ขตหนองจอก กรุงเทพ 10530",
    "dcode": "1003",
    "dname": "หนองจอก",
    "tel": "-",
    "type": "LPG",
    "lat": 13.7983831,
    "lng": 100.8320233
  },
  {
    "id": 391,
    "name": "สถานีบริการก๊าชธรรมชาติ บริษัท ส.รุ่งวิภา จำกัด",
    "address": "201/17 ถนนวิภาวดีรังสิต แขวงตลาดบางเขน เขตหลักสี่ กรุงเทพ 10210",
    "dcode": "1041",
    "dname": "หลักสี่",
    "tel": "-",
    "type": "NGV",
    "lat": 13.88635034,
    "lng": 100.5837266
  },
  {
    "id": 392,
    "name": "สถานีบริการก๊าชธรรมชาติ บริษัท ซัสโก้ จำกัด (มหาชน) สาขาวิภาวดี 2",
    "address": "41/5 ถนนวิภาวดีรังสิต แขวงตลาดบางเขน เขตหลักสี่ กรุงเทพ 10210",
    "dcode": "1041",
    "dname": "หลักสี่",
    "tel": "-",
    "type": "NGV",
    "lat": 13.858602,
    "lng": 100.5680609
  }
]
