[
  {"name":"ตลาดท่าเตียน","address":"ซ.ท่าเตียน ถ.มหาราช แขวงพระบรมราชวัง","dcode":"1001","dname":"เขตพระนคร","stall":"0","time":"ทุกวัน 11.00 - 18.30 น.","type":"อาหาร และเครื่องดื่ม","lat":13.74590153,"lng":100.4909275},
{"name":"ตลาดยอดพิมาน","address":"390/17 ถ.บ้านหม้อ แขวงวังบูรพาภิรมย์","dcode":"1001","dname":"เขตพระนคร","stall":"798","time":"ทุกวัน 12.00 - 00.00 น.","type":"ดอกไม้นานาชนิด","lat":13.74119578,"lng":100.4962702},
{"name":"ตลาดส่งเสรมการเกษตรไทย","address":"134 ถ. บ้านหม้อจักรเพชร ซ.สุวรรณนภาศรี แขวงวังบูรพาภิรมย์","dcode":"1001","dname":"เขตพระนคร","stall":"150","time":"ทุกวันตลอด 24 ชั่วโมง","type":"อาหาร พืช ผัก ผลไม้ และเนื้อสัตว์","lat":13.74034425,"lng":100.4995475},
{"name":"ตลาดบ้านหม้อ","address":"113 ถนนบ้านหม้อ แขวง วังบูรพาภิรมย์ เขต พระนคร กรุงเทพมหานคร 10200","dcode":"1001","dname":"เขตพระนคร","stall":"0","time":"ทุกวัน 08.00 - 18.00 น","type":"ศูนย์รวมสินค้านานาชนิด","lat":13.74566143,"lng":100.4977319},
{"name":"องค์การตลาดกระทรวงมหาดไทย","address":"26 - 28 ถนนจักรเพชร แขวงวังบูรพาภิรมย์","dcode":"1001","dname":"เขตพระนคร","stall":"1443","time":"จันทร์ - ศุกร์ 08.30 - 16.30 น.","type":"ผัก ผลไม้ต่าง ๆ ตลอดจนเป็นแหล่งคัดแยกสินค้า และบรรจุสินค้าเกษตรเพื่อการส่งออก","lat":13.74194388,"lng":100.4951376},
{"name":"ตลาดศรีย่าน","address":"464/11 ถ.นครไชยศรี แขวงถนนนครไชยศรี","dcode":"1002","dname":"เขตดุสิต","stall":"79","time":"05.00 - 19.00 น.","type":"อาหาร เครื่องดื่ม อาหารสดและอาหารทะเล","lat":13.78487737,"lng":100.512021},
{"name":"ตลาดราชวัตร","address":"1444/19 ถ.นครไชยศรี แขวงถนนนครไชยศรี","dcode":"1002","dname":"เขตดุสิต","stall":"240","time":"08.00 - 17.00 น.","type":"อาหาร เครื่องดื่ม อาหารสดและอาหารทะเล","lat":13.77797013,"lng":100.5239346},
{"name":"ตลาดเทวราช","address":"91/15 ถ. ศรีอยุธยา แขวงวชิรพยาบาล","dcode":"1002","dname":"เขตดุสิต","stall":"770","time":"09.00 - 21.00 น.","type":"อาหารสดและอาหารทะเลหลากหลายชนิด","lat":13.77121285,"lng":100.5026757},
{"name":"ตลาดหนองจอก","address":"ม.3 ถ. บุรีรัมย์ แขวงกรุงทุ่มทราย","dcode":"1003","dname":"เขตหนองจอก","stall":"381","time":"04.00 - 08.00 น.","type":"อาหารและเครื่องดื่ม เครื่องแต่งกาย และสินค้าทางการเกษตร","lat":13.85623715,"lng":100.8664791},
{"name":"ตลาดวัดแขก","address":"66 ถ.สีลม ซ.ประชุม แขวงสุริยวงศ์","dcode":"1004","dname":"เขตบางรัก","stall":"0","time":"ทุกวัน 06.00-18.00 น.","type":"อาหาร,เสื้อผ้า,ของใช้","lat":13.72504258,"lng":100.5228433},
{"name":"ตลาดยิ่งเจริญ","address":"259/99 ถ.พหลโยธิน แขวงอนุเสาวรีย์","dcode":"1005","dname":"เขตบางเขน","stall":"1500","time":"24 ชม.","type":"สินค้าอาหารและผลไม้","lat":13.89696144,"lng":100.6087164},
{"name":"ตลาดมงคลไชย","address":"30/4 ม.4 ถ.รามอินทรา แขวงอนุสาวรีย์","dcode":"1005","dname":"เขตบางเขน","stall":"0","time":"-","type":"อาหาร เครื่องดื่ม เครื่องแต่งกาย และของใช้ทั่วไป","lat":13.85836071,"lng":100.6271838},
{"name":"ตลาดถนอมมิตร","address":"88 ซ.รามอินทรา 55/8 ถ.รามอินทรา ซ.วัชรพล","dcode":"1005","dname":"เขตบางเขน","stall":"0","time":"04.00-01.00","type":"อาหาร เครื่องดื่ม เครื่องแต่งกาย และของใช้ทั่วไป","lat":13.85769031,"lng":100.6436459},
{"name":"ตลาดสดศูนย์การค้ารามอินทรากม 2","address":"9/534 ถ. รามอิทรา แขวงอนุเสาวรีย์","dcode":"1005","dname":"เขตบางเขน","stall":"0","time":"6:00 - 20:30","type":"อาหาร เครื่องดื่ม เครื่องแต่งกาย และของใช้ทั่วไป","lat":13.86212916,"lng":100.6136477},
{"name":"ตลาดโต้รุ่งหัวหมาก","address":"12/12 ถ.รามคำแหง ซ.ลาดพร้าว121 แขวงคลองจั่น","dcode":"1006","dname":"เขตบางกะปิ","stall":"0","time":"ไม่มีข้อมูล","type":"อาหาร เครื่องดื่ม เครื่องแต่งกาย และของใช้ทั่วไป","lat":13.75983285,"lng":100.6236799},
{"name":"ตลาดสดลำสาลี","address":"202/19 ถ.รามคำแหง แขวงหัวหมาก","dcode":"1006","dname":"เขตบางกะปิ","stall":"0","time":"ไม่มีข้อมูล","type":"อาหารสดและอาหารทะเล","lat":13.76548009,"lng":100.6552246},
{"name":"ตลาดบางกะปิ 3","address":"8-12 ถ.ลาดพร้าว แขวงคลองจั่น","dcode":"1006","dname":"เขตบางกะปิ","stall":"0","time":"เปิดทุกวัน 24 ชั่วโมง","type":"อาหารสดและอาหารทะเล","lat":13.76760678,"lng":100.6454004},
{"name":"ตลาดสดลาดพร้าว ซอย 123","address":"146/38 ถ.ลาดพร้าว แขวงคลองจั่น","dcode":"1006","dname":"เขตบางกะปิ","stall":"0","time":"เปิดทุกวัน 24 ชั่วโมง","type":"อาหารสดและอาหารทะเล","lat":13.76726877,"lng":100.6459343},
{"name":"ตลาดสดนครไทย","address":"2 ถ.ลาดพร้าว แขวงคลองจั่น","dcode":"1006","dname":"เขตบางกะปิ","stall":"0","time":"เปิดทุกวัน 05.00 - 21.00 น.","type":"อาหารสดและอาหารทะเล","lat":13.77525876,"lng":100.6296865},
{"name":"ตลาดบางกะปิ","address":"144/207 ซ.ลาดพร้าว127 แขวงคลองจั่น","dcode":"1006","dname":"เขตบางกะปิ","stall":"689","time":"01.00 -16.00 น.","type":"อาหารสด อาหารทะเล ผัก ผลไม้ต่าง ๆ","lat":13.76766492,"lng":100.6461683},
{"name":"ตลาดสดลาดพร้าว 123","address":"ซ.ลาดพร้าว 123 ถ.ลาดพร้าว แขวงคลองจั่น","dcode":"1006","dname":"เขตบางกะปิ","stall":"0","time":"16.00 - 22.00 น.","type":"อาหารสดและอาหารทะเล","lat":13.7666814,"lng":100.6459117},
{"name":"ตลาดสามย่าน","address":"6 ถ.พระราม 4 ซ.จุฬา9 แขวงวังใหม่","dcode":"1007","dname":"เขตปทุมวัน","stall":"0","time":"ทุกวัน 05.00-19.00 น.","type":"อาหาร,ของใช้","lat":13.73415785,"lng":100.528108},
{"name":"ตลาดนางเลิ้ง","address":"264 ถนนสวรรค์ แขวงวัดโสมนัส","dcode":"1008","dname":"เขตป้อมปราบศัตรูพ่าย","stall":"0","time":"ทุกวัน 10.00 - 16.00 น.","type":"อาหาร และเครื่องดื่ม","lat":13.75904221,"lng":100.5121323},
{"name":"ตลาด AEC รามคำแหง","address":"14ถ.รามคำแหง ซ.เคหะชุมชนรามคำแหง แขวงมีนบุรี","dcode":"1010","dname":"เขตมีนบุรี","stall":"0","time":"ทุกวัน 08.30 - 18.00 น.","type":"อาหาร และเครื่องดื่ม","lat":13.80316248,"lng":100.7300433},
{"name":"ตลาดมีนบุรี 1","address":"521 ถ.สีหบุรานุกิจ แขวงมีนบุรี","dcode":"1010","dname":"เขตมีนบุรี","stall":"150","time":"ทุกวันตลอด 24 ชั่วโมง","type":"ศูนย์การค้าอาหาร","lat":13.81073603,"lng":100.7314217},
{"name":"ตลาดศูนย์การค้ามีนบุรี","address":"7 ถ. สีหบุรานุกิจ ซ. 15 แขวงมีนบุรี","dcode":"1010","dname":"เขตมีนบุรี","stall":"0","time":"เปิดตลอด 24 ชั่วโมง","type":"ศูนย์การค้าอาหาร และของใช้ต่าง ๆ","lat":13.81350482,"lng":100.728427},
{"name":"ตลาดนัดจตุจักร (มีนบุรี)","address":"ถนนสีหบุรานุกิจ แขวงมีนบุรี","dcode":"1010","dname":"เขตมีนบุรี","stall":"3317","time":"เปิดทุกวัน 05.00-21.00 น.","type":"อาหารและเครื่องดื่ม เครื่องแต่งกาย และของใช้ทั่วไป","lat":13.8142825,"lng":100.7258061},
{"name":"ตลาดสดอุดมผล","address":"27 ม.1 แขวงลาดกระบัง","dcode":"1011","dname":"เขตลาดกระบัง","stall":"0","time":"ทุกวัน 05.00-12.00 น.","type":"อาหารสดหลากหลายชนิด","lat":13.72298656,"lng":100.7890299},
{"name":"ตลาดลานบุญ","address":"1 ซ.ลาดกระบัง 1 ถ.ลาดกระบัง แขวงลาดกระบัง","dcode":"1011","dname":"เขตลาดกระบัง","stall":"60","time":"อังคาร พฤหัสบดี และอาทิตย์ 14.00-20.00 น.","type":"อาหารและเครื่องดื่ม","lat":13.72270633,"lng":100.7190417},
{"name":"ตลาดเกรียงไกร","address":"431 ถ. ร่มเกล้า ซ.ราษฎร์พัฒนา แขวงคลองสองต้นนุ่น","dcode":"1011","dname":"เขตลาดกระบัง","stall":"150","time":"ทุกวัน เช้า : 05.00-08.00 น. เย็น : 12.00-15.00 น.","type":"อาหารสดหลากหลายชนิด","lat":13.76194621,"lng":100.7288707},
{"name":"ตลาดกลางนครร่มเกล้า","address":"ถนนการเคหะร่มเกล้า แขวงคลองสองต้นนุ่น กรุงเทพฯ","dcode":"1011","dname":"เขตลาดกระบัง","stall":"0","time":"ทุกวัน 24 ชั่วโมง","type":"อาหารและเครื่องดื่ม","lat":13.76727442,"lng":100.7333669},
{"name":"ตลาดบางโพงพาง","address":"1007/1 ถ.สาธุประดิษฐ์ ซ.ปริยานนท์ แขวงบางโพงพาง","dcode":"1012","dname":"เขตยานนาวา","stall":"0","time":"ทุกวัน 05.00-21.00 น.","type":"อาหารและเครื่องดื่ม","lat":13.67957249,"lng":100.5319798},
{"name":"ตลาดรุ่งเจริญ","address":"540/201 ถ.นนทรี แขวงช่องนนทรี","dcode":"1012","dname":"เขตยานนาวา","stall":"700","time":"ทุกวัน 04.00-14.00 น.","type":"อาหารสดหลากหลายชนิด","lat":13.69410119,"lng":100.534496},
{"name":"ตลาดนางลิ้นจี่","address":"309/118 ถ.นางลิ้นจี่ แขวงช่งนนทรี","dcode":"1012","dname":"เขตยานนาวา","stall":"0","time":"ทุกวัน 09.00-24.00 น.","type":"ศูนย์การค้าอาหาร","lat":13.70772027,"lng":100.543719},
{"name":"ตลาดเพิ่มทรัพย์","address":"380/10 ถ.สาธุประดิษฐ์ 58 แขวงบางโพงพาง กรุงเทพฯ","dcode":"1012","dname":"เขตยานนาวา","stall":"100","time":"ทุกวัน 17.00-0.00 น.","type":"ศูนย์การค้าอาหาร","lat":13.6844514,"lng":100.5265016},
{"name":"ตลาดเก่า","address":"ซ. อิสรานุภาพ แขวงจักรวรรดิ","dcode":"1013","dname":"เขตสัมพันธวงศ์","stall":"0","time":"เปิด 24 ชม.","type":"วัตถุดิบในการทำอาหารจีน/ของแห้งจากเมืองจีน","lat":13.74047968,"lng":100.5084716},
{"name":"ตลาดมิ่งขวัญบ้านนา","address":"ซ. อินทมาระ16 ถ.สุทธิสาร แขวงสามเสนใน","dcode":"1014","dname":"เขตพญาไท","stall":"50","time":"ทุกวัน  04.00 - 09.00 น.","type":"อาหารสดหลากหลายชนิด","lat":13.78850052,"lng":100.5586114},
{"name":"ตลาดดาวคะนอง","address":"1332/62 ถ.ตากสิน แขวงดาวคะนอง","dcode":"1015","dname":"เขตธนบุรี","stall":"0","time":"05.30 - 14.00 น.","type":"อาหารสดและอาหารทะเล","lat":13.69761838,"lng":100.482459},
{"name":"ตลาดวัดกลาง","address":"1417/19 ถ.เทอดไท แขวงบางยี่เรือ","dcode":"1015","dname":"เขตธนบุรี","stall":"180","time":"เปิดทุกวัน 00.00 - 12.00 น.","type":"อาหารสดและอาหารทะเล","lat":13.72297496,"lng":100.4808243},
{"name":"ตลาดสี่แยกบ้านแขก","address":"27/13 ถ. อิสรภาพ แขวงหิรัยรูจี","dcode":"1015","dname":"เขตธนบุรี","stall":"20","time":"เปิดทุกวัน 06.00 - 20.00 น.","type":"อาหารสดและอาหารทะเล","lat":13.73076851,"lng":100.4940774},
{"name":"ตลาดใหม่สำเหร่","address":"1087 ถ.ตากสิน แขวงสำแหร่","dcode":"1015","dname":"เขตธนบุรี","stall":"10","time":"เปิดทุกวัน 06.00 - 15.00 น.","type":"อาหารสดและอาหารทะเล","lat":13.7121168,"lng":100.4886337},
{"name":"ตลาดท่าพระรุ่งเรือง","address":"116 ถนนเพชรเกษม แขวงวัดท่าพระ","dcode":"1016","dname":"เขตบางกอกใหญ่","stall":"10","time":"เปิดทุกวัน 06.00 - 18.00 น","type":"อาหารสดและอาหารทะเล","lat":13.72963828,"lng":100.4760949},
{"name":"ตลาดโพธิ์สามต้น","address":"495 ถนนอิสรภาพ แขวงวัดอรุณ","dcode":"1016","dname":"เขตบางกอกใหญ่","stall":"12","time":"เปิดทุกวัน 06.00 - 19.00 น.","type":"อาหารสดและอาหารทะเล","lat":13.74046981,"lng":100.4832644},
{"name":"ตลาดศักดิ์เจริญ","address":"294/1 ถ.จรัญสนิทวงศ์ ซ.จรัญสนิทวงศ์ 3 แขวงท่าพระ","dcode":"1016","dname":"เขตบางกอกใหญ่","stall":"0","time":"เปิดทุกวัน 05.00 - 08.00 น.","type":"อาหารสดและอาหารทะเล","lat":13.73335849,"lng":100.4692016},
{"name":"ตลาดท่าพระ","address":"201/10-11 ถนนเพชรเกษม แขวงวัดท่าพระ","dcode":"1016","dname":"เขตบางกอกใหญ่","stall":"0","time":"เปิดทุกวัน 06.00 - 18.00 น.","type":"อาหารสดและอาหารทะเล","lat":13.72860514,"lng":100.4735086},
{"name":"ตลาดเงินวิจิตร","address":"73 ถ.ตากสิน ซ.คลองตากสิน 5 แขวงคลองต้นไทร","dcode":"1018","dname":"เขตคลองสาน","stall":"250","time":"ทุกวัน 24 ชั่วโมง","type":"อาหารสดและอาหารทะเลทุกชนิด","lat":13.72446425,"lng":100.4932053},
{"name":"ตลาดวงเวียนใหญ่","address":"41 ถ.เจริญรัถ แขวงคลองสาน","dcode":"1018","dname":"เขตคลองสาน","stall":"0","time":"ทุกวัน 24 ชั่วโมง","type":"อาหารสด อาหารทะเล และศูนย์อาหาร","lat":13.72522219,"lng":100.493432},
{"name":"ตลาดท่าดินแดง","address":"163 ถ.ท่าดินแดง แขวงสมเด็จเจ้าพระยา","dcode":"1018","dname":"เขตคลองสาน","stall":"0","time":"ทุกวัน 24 ชั่วโมง","type":"อาหารสด ผัก ผลไม้ต่าง ๆ","lat":13.73373717,"lng":100.5023997},
{"name":"ตลาดพระเครื่องวงเวียนเล็ก","address":"เชิงสะพานพระปกเกล้า ถนนประชาธิปก แขวงสมเด็จเจ้าพระยา","dcode":"1018","dname":"เขตคลองสาน","stall":"598","time":"07.00 - 16.00 น.","type":"พระเครื่อง","lat":13.73531735,"lng":100.4967322},
{"name":"ตลาด Food villa 77","address":"77 ถ.ราชพฤกษ์ แขวงบางระมาด","dcode":"1019","dname":"เขตตลิ่งชัน","stall":"412","time":"08.00 - 23.00 น.","type":"อาหาร เครื่องดื่ม อาหารสดและอาหารทะเล","lat":13.76394303,"lng":100.444099},
{"name":"ศูนย์กลางตลาดดอกไม้ (499/2)","address":"499/2 ถ.พรานนก -พุทธมณฑล สาย 4 แขวงบางพรม","dcode":"1019","dname":"เขตตลิ่งชัน","stall":"3000","time":"06.00 - 21.00น.","type":"ตลาดใหญ่ สินค้าราคาถูก","lat":13.75166307,"lng":100.4448097},
{"name":"ตลาด Food villa 77/2","address":"77/2 ถ.ราชพฤกษ์ แขวงบางระมาด","dcode":"1019","dname":"เขตตลิ่งชัน","stall":"412","time":"08.00 - 23.00 น.","type":"อาหาร เครื่องดื่ม อาหารสดและอาหารทะเล","lat":13.76418991,"lng":100.4436196},
{"name":"ตลาด Food villa 77/1","address":"77/1 ถนนราชพฤกษ์ แขวงบางระมาด","dcode":"1019","dname":"เขตตลิ่งชัน","stall":"412","time":"08.00 - 23.00 น.","type":"อาหาร เครื่องดื่ม อาหารสดและอาหารทะเล","lat":13.7644672,"lng":100.4441207},
{"name":"ตลาด Food villa 77/3","address":"77/3 ถ.ราชพฤกษ์ แขวงบางระมาด","dcode":"1019","dname":"เขตตลิ่งชัน","stall":"412","time":"08.00 - 23.00 น.","type":"อาหาร เครื่องดื่ม อาหารสดและอาหารทะเล","lat":13.76519321,"lng":100.443635},
{"name":"ศูนย์กลางตลาดดอกไม้ (499/4)","address":"499/4ถ.พรานนก -พุทธมณฑล สาย 4 แขวงบางพรม","dcode":"1019","dname":"เขตตลิ่งชัน","stall":"3000","time":"06.00 - 21.00น.","type":"ดอกไม้ ผลไม้ อาหาร และของใช้ทั่วไป","lat":13.74967589,"lng":100.4445478},
{"name":"ศูนย์กลางตลาดดอกไม้ (499/3)","address":"499/3ถ.พรานนก -พุทธมณฑล สาย 4 แขวงบางพรม","dcode":"1019","dname":"เขตตลิ่งชัน","stall":"3000","time":"06.00 - 21.00น.","type":"ดอกไม้ ผลไม้ อาหาร และของใช้ทั่วไป","lat":13.75041706,"lng":100.4445616},
{"name":"ศูนย์กลางตลาดดอกไม้ (499/5)","address":"499/5ถ.พรานนก -พุทธมณฑล สาย 4 แขวงบางพรม","dcode":"1019","dname":"เขตตลิ่งชัน","stall":"3000","time":"06.00 - 21.00น.","type":"ดอกไม้ ผลไม้ อาหาร และของใช้ทั่วไป","lat":13.75104077,"lng":100.4445655},
{"name":"ศูนย์กลางตลาดดอกไม้ (499/5)","address":"499/6ถ.พรานนก -พุทธมณฑล สาย 4 แขวงบางพรม","dcode":"1019","dname":"เขตตลิ่งชัน","stall":"3000","time":"06.00 - 21.00น.","type":"ดอกไม้ ผลไม้ อาหาร และของใช้ทั่วไป","lat":13.75138654,"lng":100.4441792},
{"name":"ศูนย์กลางตลาดดอกไม้ (499/7)","address":"499/7ถ.พรานนก -พุทธมณฑล สาย 4 แขวงบางพรม","dcode":"1019","dname":"เขตตลิ่งชัน","stall":"3000","time":"06.00 - 21.00น.","type":"ดอกไม้ ผลไม้ อาหาร และของใช้ทั่วไป","lat":13.75095238,"lng":100.4442228},
{"name":"ศูนย์กลางตลาดดอกไม้ (499/8)","address":"499/8ถ.พรานนก -พุทธมณฑล สาย 4 แขวงบางพรม","dcode":"1019","dname":"เขตตลิ่งชัน","stall":"3000","time":"06.00 - 21.00น.","type":"ดอกไม้ ผลไม้ อาหาร และของใช้ทั่วไป","lat":13.74933473,"lng":100.4441481},
{"name":"ศูนย์กลางตลาดดอกไม้ (499/9)","address":"499/9ถ.พรานนก -พุทธมณฑล สาย 4 แขวงบางพรม","dcode":"1019","dname":"เขตตลิ่งชัน","stall":"3000","time":"06.00 - 21.00น.","type":"ดอกไม้ ผลไม้ อาหาร และของใช้ทั่วไป","lat":13.74998155,"lng":100.4448364},
{"name":"ศูนย์กลางตลาดดอกไม้ (499/10)","address":"499/10ถ.พรานนก -พุทธมณฑล สาย 4 แขวงบางพรม","dcode":"1019","dname":"เขตตลิ่งชัน","stall":"3000","time":"06.00 - 21.00น.","type":"ดอกไม้ ผลไม้ อาหาร และของใช้ทั่วไป","lat":13.7501206,"lng":100.4442454},
{"name":"องค์กรตลาด กระทรวงมหาดไทย สาขาตลิ่งชัน","address":"51/47 ถนนสวนผัก .รอมคลองมกาสวัสดิ์ แขวงตลิ่งชัน","dcode":"1019","dname":"เขตตลิ่งชัน","stall":"1829","time":"จันทร์ - ศุกร์ 08.30 - 16.30 น.","type":"ตลาดกลางเกษตรกรตลิ่งชัน","lat":13.79682305,"lng":100.4588965},
{"name":"ตลาดพรานนก","address":"280 ถ.อิสรภาพ แขวงบ้านช่างหล่อ","dcode":"1020","dname":"เขตบางกอกน้อย","stall":"0","time":"เปิดทุกวัน 06.00 - 18.00 น.","type":"อาหารสดและอาหารทะเล","lat":13.75497968,"lng":100.4785007},
{"name":"ตลาดบางขุนศรี","address":"453/60 ถ.จรัญสนิทวงศ์ แขวงบางขุนศรี","dcode":"1020","dname":"เขตบางกอกน้อย","stall":"142","time":"เปิดทุกวัน 05.00 - 19.00 น.","type":"อาหารสดและอาหารทะเล","lat":13.75904038,"lng":100.4691028},
{"name":"ตลาดนครหลวง","address":"261/108 ถ.จรัญสนิทวงศ์ แขวงบางขุนศรี","dcode":"1020","dname":"เขตบางกอกน้อย","stall":"0","time":"เปิดทุกวัน 07.30 - 20.00 น.","type":"อาหารสดและอาหารทะเล","lat":13.7530215,"lng":100.4688618},
{"name":"ตลาดอัมรินทร์","address":"566 ถนนรถไฟ แขวงศิริราช","dcode":"1020","dname":"เขตบางกอกน้อย","stall":"3000","time":"เปิดทุกวัน 00.00 - 11.00 น.","type":"อาหารสดและอาหารทะเล","lat":13.75904123,"lng":100.4855453},
{"name":"ตลาดสถานีรถไฟธนบุรี","address":"9/4 ซอยริมทางรถไฟ แขวงศิริราช","dcode":"1020","dname":"เขตบางกอกน้อย","stall":"1900","time":"เปิดทุกวัน 23.00 - 09.00 น.","type":"อาหารสดและอาหารทะเล","lat":13.75927713,"lng":100.4839007},
{"name":"ตลาดบางกอกน้อย","address":"356/43 ถนนอิสรภาพ แขวงศิริราช","dcode":"1020","dname":"เขตบางกอกน้อย","stall":"1320","time":"เปิดทุกวัน 03.00 - 19.00 น.","type":"อาหารสดและอาหารทะเล","lat":13.75591276,"lng":100.4781644},
{"name":"ตลาดกลางบางกระดี่","address":"79/6 ม.4 ถ.บางกระดี่ แขวงแสมดำ","dcode":"1021","dname":"เขตบางขุนเทียน","stall":"0","time":"เปิดทุกวัน 03.00 - 10.00 น.","type":"อาหารสดและอาหารทะเล","lat":13.628033,"lng":100.3996434},
{"name":"ตลาดนัดมารวย","address":"88/2655 ม.6พระราม2 แขวงแสมดำ เขตบางขุนเทียน","dcode":"1021","dname":"เขตบางขุนเทียน","stall":"0","time":"เปิดทุกวัน 04.00 - 21.00 น.","type":"อาหาร เครื่องดื่ม เครื่องแต่งกาย และของใช้ทั่วไป","lat":13.64849891,"lng":100.4203866},
{"name":"ตลาดปัญญา","address":"233/1 พระราม 2 ซ.47 ปากซอยอนามัย 11 แขวงท่าข้าม","dcode":"1021","dname":"เขตบางขุนเทียน","stall":"0","time":"08.00-18.00","type":"อาหาร เครื่องดื่ม เครื่องแต่งกาย และของใช้ทั่วไป","lat":13.66141377,"lng":100.4490281},
{"name":"ตลาดเจริญศรี","address":"43 ถ.เทอดไท แขวงปากคลองภาษีเจริญ","dcode":"1022","dname":"เขตภาษีเจริญ","stall":"0","time":"ทุกวัน 06.00 - 21.00 น.","type":"ผลไม้นานาชนิด","lat":13.72115504,"lng":100.4676924},
{"name":"ตลาดเสนีย์","address":"194 ถ.เพชรเกษม ปากคลองภาษีเจริญ เขตภาษีเจริญ","dcode":"1022","dname":"เขตภาษีเจริญ","stall":"0","time":"ทุกวัน","type":"ศูนย์การค้าอาหาร","lat":13.72297086,"lng":100.461786},
{"name":"ตลาดนัดแม่อุทัย","address":"7314 ซ.เพชรเกษม 54 ถ.เพชรเกษม แขวงบางด้วน","dcode":"1022","dname":"เขตภาษีเจริญ","stall":"0","time":"ทุกวัน 12.00 - 21.00 น.","type":"อาหาร และเครื่องดื่ม","lat":13.72018033,"lng":100.4335582},
{"name":"ตลาดศูนย์การค้านครเพชรเกษม","address":"61/39 ถ.เพชรเกษม แขวงหนองค้างพูล","dcode":"1023","dname":"เขตหนองแขม","stall":"192","time":"09.00 - 20.00 น.","type":"อาหารและเครื่องดื่ม","lat":13.70621157,"lng":100.3620299},
{"name":"ตลาดศูนย์การค้าหนองแขม","address":"99/46 ถ.เพชรเกษม ซ.เพชรเกษม 81/1 แขวงหนองค้างพูล","dcode":"1023","dname":"เขตหนองแขม","stall":"325","time":"14.00 - 20.00 น.","type":"ศูนย์การค้าอาหารหลากหลาย","lat":13.70480219,"lng":100.3420318},
{"name":"ตลาดบางปะกอก","address":"554/132 ถ.สุสวัสดิ์ แขวงบางปะกอก","dcode":"1024","dname":"เขตราษฎร์บูรณะ","stall":"165","time":"ทุกวัน 03.00-19.00 น.","type":"อาหารสดหลากหลายชนิด","lat":13.67789641,"lng":100.5001034},
{"name":"ตลาดกรุงธน","address":"308/2 ถ.ราชวิถี แขวงบางยี่ขัน","dcode":"1025","dname":"เขตบางพลัด","stall":"51","time":"ทุกวัน 07.00-15.00 น.","type":"อาหารสด","lat":13.78377638,"lng":100.4954589},
{"name":"ตลาดเจริญพรผล","address":"63 จรัญสนิทวงศ์ 77/3 แขวงบางพลัด","dcode":"1025","dname":"เขตบางพลัด","stall":"40","time":"ทุกวัน 05.00-17.00 น.","type":"อาหารสด","lat":13.79132086,"lng":100.5019534},
{"name":"ตลาดสุทธิสาร","address":"208/84 ถ.สุทธิสาร ซ.วิน28/1 แขวงดินแดง","dcode":"1026","dname":"เขตดินแดง","stall":"0","time":"06.00 - 21.30 น.","type":"อาหารสดและอาหารทะเล","lat":13.78880596,"lng":100.5660216},
{"name":"ตลาดศรีวนิช","address":"466 ซ.วัดตะพาน ถ.ดินแดง แขวงดินแดง","dcode":"1026","dname":"เขตดินแดง","stall":"0","time":"05.00 - 10.00 น.","type":"อาหารสดและอาหารทะเล","lat":13.7631731,"lng":100.5456448},
{"name":"ตลาดศรีดินแดง","address":"ถ.ดินแดง แขวงดินแดง","dcode":"1026","dname":"เขตดินแดง","stall":"0","time":"04.00 - 22.00 น.","type":"อาหารสดและอาหารทะเล","lat":13.76197471,"lng":100.5507879},
{"name":"ตลาดห้วยขวาง","address":"ถนนประชาสงเคราะห์ แขวงดินแดง เขตดินแดง ห้วยขวาง","dcode":"1026","dname":"เขตดินแดง","stall":"0","time":"00.00 - 15.00 น.","type":"อาหารสดและอาหารทะเล","lat":13.77800635,"lng":100.5685206},
{"name":"ตลาดสดแฮปปี้แลนด์ใหม่","address":"1 ซอยเสรีไทย 41 ถนนเสรีไทย แขวงคลองกุ่ม","dcode":"1027","dname":"เขตบึงกุ่ม","stall":"0","time":"ทุกวัน 05.00-20.00 น.","type":"อาหารสด","lat":13.7816032,"lng":100.6689141},
{"name":"ตลาดสวนพลู","address":"518 ซ.สวนพลู  แขวงทุ่งมหาเมฆ","dcode":"1028","dname":"เขตสาทร","stall":"0","time":"ทุกวัน 08.00-20.00 น.","type":"อาหารสดหลากหลายชนิด","lat":13.7190436,"lng":100.5383841},
{"name":"ตลาดสะพาน 2","address":"3 ซ.จันทน์ 43 แขวงทุ่งวัดดอน","dcode":"1028","dname":"เขตสาทร","stall":"0","time":"ทุกวัน 04.00-10.00 น.","type":"อาหารสดหลากหลายชนิด","lat":13.70729899,"lng":100.5197981},
{"name":"ตลาดแสงจันทร์","address":"1106 ถ.เจริญกรุง แขวงยานนาวา","dcode":"1028","dname":"เขตสาทร","stall":"0","time":"เปิด 24 ชม.","type":"อาหารสดหลากหลายชนิด","lat":13.71111606,"lng":100.5179273},
{"name":"ตลาดคุณหญิงบุญมี","address":"1902 ถ.จันทน์ แขวงทุ่งวัดดอน","dcode":"1028","dname":"เขตสาทร","stall":"0","time":"จันทร์ถึงเสาร์ 07.00-19.00 น.","type":"อาหารสดหลากหลายชนิด","lat":13.70603486,"lng":100.526909},
{"name":"ตลาดศรีเขมา","address":"624 ถ.ประชาราษฎร์ 1 แขวงบางซื่อ","dcode":"1029","dname":"เขตบางซื่อ","stall":"544","time":"ทุกวัน 16.00-22.00 น.","type":"อาหารและเครื่องดื่ม","lat":13.81490268,"lng":100.521344},
{"name":"ตลาดมณีพิมาณ","address":"20/12 ถ.กรุงเทพ-นนทบุรี แขวงบางซื่อ","dcode":"1029","dname":"เขตบางซื่อ","stall":"152","time":"ทุกวัน 09.00-19.00 น.","type":"อาหารและเครื่องดื่ม","lat":13.80642846,"lng":100.5322311},
{"name":"ตลาดบางเขน","address":"2088/11 ถ.พหลโยธิน ซ.เสนานิคม 1 แขวงเสนานิคม","dcode":"1030","dname":"เขตจตุจักร","stall":"0","time":"04.00 - 18.00 น.","type":"อาหารสดและศูนย์อาหาร","lat":13.83436079,"lng":100.5734486},
{"name":"ตลาดอมรพันธุ์","address":"2137/27 ถ.พหลโยธิน แขวงลาดยาว","dcode":"1030","dname":"เขตจตุจักร","stall":"0","time":"04.30 - 19.00 น.","type":"อาหารและเครื่องดื่ม เครื่องแต่งกาย และของใช้ทั่วไป","lat":13.83958064,"lng":100.5741868},
{"name":"ตลาดศรีเสนา","address":"238/46 ถ.พหลโยธิน ซ.พหลโยธิน 34 แขวงเสนานิคม","dcode":"1030","dname":"เขตจตุจักร","stall":"0","time":"03.00 - 15.00 น.","type":"อาหารสด ผัก ผลไม้","lat":13.83698326,"lng":100.5816992},
{"name":"องค์กรตลาดเพื่อการเกษตร (อ.ต.ก.)","address":"101 ถ. กำแพงเพชร แขวงจตจักร","dcode":"1030","dname":"เขตจตุจักร","stall":"0","time":"06.00 - 18.00 น.","type":"ผัก ผลไม้ อาหารสด อาหารทะเล และเครื่องใช้ในครัวเรือน","lat":13.79698693,"lng":100.547384},
{"name":"ตลาดประชานิเวศน์ 1","address":"101 ถนนพหลโยธิน แขวงจตุจักร","dcode":"1030","dname":"เขตจตุจักร","stall":"341","time":"05.00 - 21.00 น.","type":"อาหารและเครื่องดื่ม ผัก ผลไม้ต่าง ๆ","lat":13.84056137,"lng":100.5450723},
{"name":"บองมาเช่ มาร์เก็ต พาร์ค","address":"105/1 ถ.เทศบาลสงเคราะห์ แขวงลาดยาว จตุจักร","dcode":"1030","dname":"เขตจตุจักร","stall":"0","time":"08.00 - 21.30 น.","type":"ผลไม้ ศูนย์อาหาร และเครื่องแต่งกาย","lat":13.83924047,"lng":100.550984},
{"name":"ตลาดนัดจตุจักร","address":"ตั้งอยู่ระหว่างถนนพหลโยธิน และถนนกำแพงเพชร 2","dcode":"1030","dname":"เขตจตุจักร","stall":"10334","time":"05.00 - 22.00 น.","type":"สินค้าทุกประเภท","lat":13.80012888,"lng":100.5508362},
{"name":"ตลาดบางคอแหลม","address":"2839 ถนนเจริญกรุง แขวงบางคอแหลม","dcode":"1031","dname":"เขตบางคอแหลม","stall":"0","time":"","type":"อาหารสดและอาหารทะเล","lat":13.69793008,"lng":100.4982427},
{"name":"ตลาดเสรีมาร์เก็ต","address":"61 อาคารพาราไดซ์พาร์ค แขวงหนองบอน","dcode":"1032","dname":"เขตประเวศ","stall":"0","time":"ทุกวัน 08.00 - 20.00 น.","type":"อาหาร ผัก ผลไม้ และของใช้ในครัวเรือน","lat":13.68853604,"lng":100.6479274},
{"name":"ตลาดนัมเบอร์วัน 1","address":"247 ถ.รามคำแหง 2 แขวงดอกไม้","dcode":"1032","dname":"เขตประเวศ","stall":"500","time":"ทุกวัน 05.00 - 20.00 น.","type":"ศูนย์การค้าอาหาร","lat":13.66823322,"lng":100.6831239},
{"name":"ตลาดนัมเบอร์วัน 2","address":"249 ถ.รามคำแหง 2 แขวงดอกไม้","dcode":"1032","dname":"เขตประเวศ","stall":"500","time":"ทุกวัน 05.00 - 20.00 น.","type":"ศูนย์การค้าอาหาร","lat":13.66846332,"lng":100.6825154},
{"name":"ตลาดนัมเบอร์วัน 3","address":"251 ถ.รามคำแหง 2 แขวงดอกไม้","dcode":"1032","dname":"เขตประเวศ","stall":"500","time":"ทุกวัน 05.00 - 20.00 น.","type":"ศูนย์การค้าอาหาร","lat":13.6681365,"lng":100.6827257},
{"name":"ตลาดบุญเรือง","address":"2 ซ.เฉลิมพระเกียรติ ร.9 ซ.24 แขวงหนองบอน","dcode":"1032","dname":"เขตประเวศ","stall":"300","time":"ทุกวัน 04.00 - 10.00 น.","type":"อาหาร พืช ผัก ผลไม้ และเนื้อสัตว์","lat":13.68233988,"lng":100.6688498},
{"name":"ตลาดราชพฤกษ์","address":"8 ถ.เฉลิมพระเกียรติ ร.9 ซ.65 แขวงดอกไม้","dcode":"1032","dname":"เขตประเวศ","stall":"0","time":"ทุกวัน 06.30 - 19.00 น.","type":"อาหาร และเครื่องดื่ม","lat":13.70026019,"lng":100.6840542},
{"name":"ตลาด อตก.วีด้า เจมโมโปลิศ","address":"1/7 ซอย 01 กาญจนาภิเษก แขวงดอกไม้","dcode":"1032","dname":"เขตประเวศ","stall":"400","time":"ทุกวัน 03.00 - 22.00 น.","type":"อาหาร และเครื่องดื่ม","lat":13.68448618,"lng":100.70145},
{"name":"ตลาดนัดเรือนชมดาว","address":"ถ.เฉลิมพระเกียรติ ร.9 แขวงดอกไม้","dcode":"1032","dname":"เขตประเวศ","stall":"0","time":"ทุกวัน","type":"อาหารและเครื่องดื่ม","lat":13.6994373,"lng":100.6787881},
{"name":"ตลาดคลองเตย 3","address":"25/3 ถนนสุนทรโกษา แขวงคลองเตย กรุงเทพฯ","dcode":"1033","dname":"เขตคลองเตย","stall":"0","time":"06.00 - 02.00 น.","type":"อาหารสด ผัก และผลไม้ต่าง ๆ","lat":13.71712933,"lng":100.5568171},
{"name":"ตลาดเอี่ยมสมบัติ","address":"2237 ถ.อ่อนนุช ซ.ศรีนรินทร์ 26 แขวงสวนหลวง","dcode":"1034","dname":"เขตสวนหลวง","stall":"0","time":"15.30 - 20.00 น.","type":"อาหารสด อาหารทะเล ผัก ผลไม้","lat":13.71368062,"lng":100.6427312},
{"name":"ตลาดสุขสวัสดิ์","address":"473/10 ถ.สุขสวัสดิ์ แขวงจอมทอง","dcode":"1035","dname":"เขตจอมทอง","stall":"0","time":"08.00 - 20.00 น.","type":"อาหารสด ผัก ผลไม้","lat":13.68882475,"lng":100.4821543},
{"name":"ตลาดวัดไทร","address":"11 ซ. วัดไทร ถ.เอกชัย แขวงบางขุนเทียน","dcode":"1035","dname":"เขตจอมทอง","stall":"0","time":"05.00 - 10.00 น.","type":"อาหารสด ผัก ผลไม้","lat":13.68979529,"lng":100.4572357},
{"name":"ตลาดโอ๋เอ๋","address":"24 ม.2 พระรามที่ 2 แขวงบางมด","dcode":"1035","dname":"เขตจอมทอง","stall":"0","time":"05.00 - 17.00  น.","type":"อาหารและเครื่องดื่ม เครื่องแต่งกาย และของใช้ทั่วไป","lat":13.68157653,"lng":100.4788825},
{"name":"ตลาดพิบูลย์วิทย์","address":"36/16 ม.3 ต.ถ.กำนันแม้น แขวงบางขุนเทียน","dcode":"1035","dname":"เขตจอมทอง","stall":"0","time":"07.00 - 20.00 น.","type":"อาหารและเครื่องดื่ม เครื่องแต่งกาย และของใช้ทั่วไป","lat":13.68685416,"lng":100.4439048},
{"name":"ตลาดใหม่จอมทอง","address":"122/130 ถ.จอมทอง แขวงบางค้อ","dcode":"1035","dname":"เขตจอมทอง","stall":"200","time":"03.30 - 10.00 น.","type":"อาหารสด ผัก ผลไม้","lat":13.69899815,"lng":100.4708924},
{"name":"ตลาดวัฒนานันท์","address":"70 ซ.สรณคมน์ 2 ถ.สรงประภา แขวงสีกัน","dcode":"1036","dname":"เขตดอนเมือง","stall":"500","time":"02.00 - 12.00 น.","type":"อาหารและเครื่องดื่ม เครื่องแต่งกาย และของใช้ทั่วไป","lat":13.92409648,"lng":100.5990579},
{"name":"ตลาดเพชรบุรี","address":"34/38 ถ.เพชรบุรี ซ.เพชรบุรี12  แขวงถนนเพชรบรุี","dcode":"1037","dname":"เขตราชเทวี","stall":"0","time":"ทุกวัน 17.00-20.00 น.","type":"อาหารและเครื่องดื่ม","lat":13.75299776,"lng":100.5292473},
{"name":"ตลาดฉัตรสาคร","address":"13/1 ถ.เสนานิเวศน์ แขวงลาดพร้าว","dcode":"1038","dname":"เขตลาดพร้าว","stall":"0","time":"ทุกวัน 14.00-20.00 น.","type":"อาหารสดหลากหลายชนิด","lat":13.83180387,"lng":100.5914786},
{"name":"ตลาดสุคนธสวัสดิ์","address":"464 ถ.สุคนธสวัสดิ์ แขวงลาดพร้าว","dcode":"1038","dname":"เขตลาดพร้าว","stall":"0","time":"ทุกวัน 09.00-18.00 น.","type":"อาหารสดหลากหลายชนิด","lat":13.82859751,"lng":100.6228235},
{"name":"ตลาดทรัพย์นิมิตร","address":"ข้างโรงเรียนสตรีวิทยา 2 ถ.สุคนธสวัสดิ์","dcode":"1038","dname":"เขตลาดพร้าว","stall":"0","time":"ทุกวัน 09.00-20.00 น.","type":"อาหารสดหลากหลายชนิด","lat":13.82519405,"lng":100.6180825},
{"name":"ตลาดแสงทิพย์ 2","address":"ถ.สุขุมวิท71 ซ.แสงทิพย์ แขวงพระโขนงเหนือ","dcode":"1039","dname":"เขตวัฒนา","stall":"0","time":"ทุกวัน 06.00-20.00 น.","type":"อาหารสดหลากหลายชนิด","lat":13.71198285,"lng":100.5969826},
{"name":"ตลาดเอกมัย","address":"632 ถ.สุขุมวิท ซ.สุขุมวิท63 แขวงคลองตันเหนือ","dcode":"1039","dname":"เขตวัฒนา","stall":"0","time":"ทุกวัน 10.00-24.00 น.","type":"อาหารสดหลากหลายชนิด","lat":13.74002962,"lng":100.5902098},
{"name":"ตลาดแสงทิพย์ 1","address":"ถ.สุขุมวิท 71 ซ.แสงทิพย์ แขวงพระโขนงเหนือ","dcode":"1039","dname":"เขตวัฒนา","stall":"0","time":"ทุกวัน 06.00-20.00 น.","type":"อาหารสดหลากหลายชนิด","lat":13.71233038,"lng":100.5963563},
{"name":"ตลาดรุ่งอรุณ","address":"ถ.สุขุมวิท แขวงพระโขนงเหนือ","dcode":"1039","dname":"เขตวัฒนา","stall":"0","time":"จันทร์ถึงศุกร์ 08.00-17.00 น.","type":"อาหารสดหลากหลายชนิด","lat":13.71199631,"lng":100.5962986},
{"name":"ตลาดอ่อนนุช","address":"10 ถ.สุขุมวิท ซ.สุขุมวิท 77 แขวงพระโขนงเหนือ","dcode":"1039","dname":"เขตวัฒนา","stall":"0","time":"ทุกวัน 05.00-18.00 น.","type":"อาหารสดหลากหลายชนิด","lat":13.71008703,"lng":100.6008067},
{"name":"ตลาดใหม่บางแค","address":"37/20 ถ.เพชรเกษม แขวงบางแค","dcode":"1040","dname":"เขตบางแค","stall":"56","time":"08:00 - 20:00","type":"อาหาร เครื่องดื่ม เครื่องแต่งกาย และของใช้ทั่วไป","lat":13.71169678,"lng":100.4249264},
{"name":"ตลาดแสงฟ้าห้าแพะ","address":"185 ม.4 ถ.เพชรเกษม แขวงบางแค","dcode":"1040","dname":"เขตบางแค","stall":"0","time":"","type":"สินค้าอาหารและผลไม้","lat":13.71094902,"lng":100.4244873},
{"name":"ตลาดศูนย์การค้าบางแค","address":"176/171 ถ.เพชรเกษม แขวงบางแค","dcode":"1040","dname":"เขตบางแค","stall":"40","time":"","type":"สินค้าอาหาร","lat":13.71047861,"lng":100.4229774},
{"name":"ตลาดบางแคภิรมย์","address":"บางบอน3 แขวงหลักสอง บางแค","dcode":"1040","dname":"เขตบางแค","stall":"544","time":"","type":"อาหารและเครื่องดื่ม ผัก ผลไม้ต่าง ๆ","lat":13.68631241,"lng":100.3836325},
{"name":"ตลาดเพลย์มาร์เก็ต","address":"1759 ถ.เพชรเกษม แขวงหลักสอง","dcode":"1040","dname":"เขตบางแค","stall":"0","time":"","type":"","lat":13.71177592,"lng":100.4237433},
{"name":"ตลาดพงษ์เพชร","address":"299 ถ.งามวงศ์วาน ซ. พงษ์ดำริ 2 แขวงทุ่งสองห้อง","dcode":"1041","dname":"เขตหลักสี่","stall":"69","time":"04.00 - 10.00 น.","type":"ผัก ผลไม้ และเนื้อสัตว์","lat":13.85532283,"lng":100.546428},
{"name":"ตลาดเมืองทอง","address":"106/3 ถ.แจ้งวัฒนะ แขวงทุ่งสองห้อง","dcode":"1041","dname":"เขตหลักสี่","stall":"85","time":"05.00 - 21.00 น","type":"ผัก ผลไม้ และเนื้อสัตว์","lat":13.89566584,"lng":100.5618516},
{"name":"ตลาดเคหะทุ่งสองห้อง","address":"ถนนแจ้งวัฒนะ10 แขวงทุ่งสองห้อง","dcode":"1041","dname":"เขตหลักสี่","stall":"220","time":"04.00 - 20.00 น.","type":"ผัก ผลไม้ และเนื้อสัตว์","lat":13.89941487,"lng":100.5846297},
{"name":"ตลาดวงศกร","address":"46/3 ม.1 ถ.สายไหม แขวงสายไหม","dcode":"1042","dname":"เขตสายไหม","stall":"0","time":"เปิด 24 ชม.","type":"ศูนย์การค้าอาหาร","lat":13.92057653,"lng":100.6841751},
{"name":"ตลาดสายไหม กทม.19","address":"9/19 ถ.สายไหม แขวงสายไหม กรุงเทพ","dcode":"1042","dname":"เขตสายไหม","stall":"171","time":"16.00-24.00 น.","type":"อาหารสดหลากหลายชนิด","lat":13.9207056,"lng":100.6825012},
{"name":"ตลาดเอซี สายไหม","address":"222/1 ถ.สายไหม แขวงสายไหม","dcode":"1042","dname":"เขตสายไหม","stall":"600","time":"ทุกวัน 04.00-23.00 น.","type":"อาหารสดหลากหลายชนิด","lat":13.923588,"lng":100.6428892},
{"name":"ตลาดนัดอมร","address":"ปากซอยพหลโยธิน 58 ถนนพหลโยธิน แขวงสายไหม","dcode":"1042","dname":"เขตสายไหม","stall":"160","time":"ตลาดในอาคาร 04.00-21.00 น. และ ตลาดนัดกลางคืน 17.00-23.00 น.","type":"อาหารและเครื่องดื่ม","lat":13.9371944,"lng":100.6262723},
{"name":"ตลาดเอสที เพิ่มสิน","address":"49/3 ถ.เพิ่มสิน แขวงคลองถนน","dcode":"1042","dname":"เขตสายไหม","stall":"300","time":"ทุกวัน 06.00-21.00 น.","type":"อาหารสดหลากหลายชนิด","lat":13.90057599,"lng":100.6360648},
{"name":"ตลาดสายเนตร","address":"8 ถ. รามอินทรา ซ.รามอินทรา 78 แขวงคันนายาว","dcode":"1043","dname":"เขตคันนายาว","stall":"0","time":"02.00 - 19.00 น.","type":"อาหารสด อาหารทะเล","lat":13.83942699,"lng":100.6631373},
{"name":"ตลาดโชคชัย 4","address":"111 ถ.ลาดพร้าว ซ.ลาดพร้าว55 แขวงสะพาน 2","dcode":"1045","dname":"เขตวังทองหลาง","stall":"0","time":"ทุกวัน 13.00-22.00 น.","type":"ศูนย์การค้าอาหาร","lat":13.79503941,"lng":100.5960846},
{"name":"ตลาดทรัพย์จันทร์ผัน","address":"275 ถ.ลาดพร้าว ซ.ลาดพร้าว 47 แขวงสะพานสอง","dcode":"1045","dname":"เขตวังทองหลาง","stall":"0","time":"ทุกวัน 03.00-10.00 น.","type":"อาหารสดหลากหลายชนิด","lat":13.79724011,"lng":100.5898567},
{"name":"ตลาดหทัยมิตร","address":"748 ถ.หทัยราฎร์ แขวงบางชัน","dcode":"1046","dname":"เขตคลองสามวา","stall":"0","time":"07.00 - 16.00 น.","type":"อาหารสด อาหารทะเล และศูนย์อาหาร","lat":13.86065524,"lng":100.7237522},
{"name":"ตลาดไนน์ใหญ่","address":"57 ถ.เลียบคลองสอง แขวงบางชัน","dcode":"1046","dname":"เขตคลองสามวา","stall":"0","time":"06.00 - 22.00 น.","type":"อาหารสดและศูนย์อาหาร","lat":13.85999282,"lng":100.6982706},
{"name":"ตลาดครอบครัว","address":"388/107 ถ.หทัยราษฎร์ แขวงสามวาตะวันตก","dcode":"1046","dname":"เขตคลองสามวา","stall":"300","time":"08.00 - 20.00 น.","type":"อาหารสด อาหารทะเล และศูนย์อาหาร","lat":13.89136878,"lng":100.7223415},
{"name":"ตลาดสี่แยกบางนา","address":"47/69 ถ.สรรพาวุธ ซ.บางนาใน แขวงบางนา","dcode":"1047","dname":"เขตบางนา","stall":"0","time":"เปิด 24 ชม.","type":"อาหารและเครื่องดื่ม","lat":13.67280792,"lng":100.6053058},
{"name":"ตลาดอุดมสุข","address":"4/3 ซ.อุดมสุข ถ.สุขุมวิท แขวงบางนา","dcode":"1047","dname":"เขตบางนา","stall":"0","time":"ทุกวัน 06.00-22.00 น.","type":"อาหารและเครื่องดื่ม","lat":13.67831731,"lng":100.6101686},
{"name":"ตลาดมหาสิน","address":"900/6 ถ.วชิรธรรมสาธิต ซ.101/1 แขวงบางนา","dcode":"1047","dname":"เขตบางนา","stall":"0","time":"ทุกวัน 05.00-21.30 น.","type":"อาหารและเครื่องดื่ม","lat":13.68379741,"lng":100.6194963},
{"name":"ตลาดลาซาล 2000","address":"22/24 ถ.สุขุมวิท 105 ซ.ลาซาล แขวงบางนา","dcode":"1047","dname":"เขตบางนา","stall":"0","time":"เปิด 24 ชม.","type":"อาหารและเครื่องดื่ม","lat":13.66329034,"lng":100.616352},
{"name":"ตลาดดวงพลอย","address":"557 ถ.ลาซาล แขวงบางนา","dcode":"1047","dname":"เขตบางนา","stall":"0","time":"ทุกวัน 17.00-02.00 น.","type":"อาหารและเครื่องดื่ม","lat":13.66279682,"lng":100.6185671},
{"name":"ตลาดศิลวัฒน์","address":"40/3 ถนนสรรพาวุธ แขวงบางนา กรุงเทพฯ","dcode":"1047","dname":"เขตบางนา","stall":"0","time":"ทุกวัน 06.00-18.00 น.","type":"อาหารและเครื่องดื่ม","lat":13.67650548,"lng":100.5883865},
{"name":"ตลาดพุทธมณฑล","address":"81/87 ม.9 ถ.บรมราชชนนี แขวงศาลาธรรมสพน์","dcode":"1048","dname":"เขตทวีวัฒนา","stall":"0","time":"15.00 - 20.30 น.","type":"อาหาร เครื่องดื่ม อาหารสดและอาหารทะเล","lat":13.78755125,"lng":100.3342434},
{"name":"ตลาดธนบุรี (สนามหลวง 2)","address":"198/1 ถนนทวีวัฒนา แขวงทวีวัฒนา","dcode":"1048","dname":"เขตทวีวัฒนา","stall":"4642","time":"09.00 - 18.30 น.","type":"ต้นไม้ทุกประเภท สัตว์เลี้ยง และงานหัตถกรรมต่าง ๆ","lat":13.74417306,"lng":100.3499959},
{"name":"ตลาดเวิลด์มาร์เก็ต1","address":"109/17ถ.ทวีวัฒนา แขวงทวีวัฒนา","dcode":"1048","dname":"เขตทวีวัฒนา","stall":"2060","time":"06.00 - 20.00 น.","type":"ตลาดใหญ่ มีสินค้าจำหน่ายหลากหลาย","lat":13.74282898,"lng":100.3560639},
{"name":"ตลาดเวิลด์มาร์เก็ต2","address":"109/18ถ.ทวีวัฒนา แขวงทวีวัฒนา","dcode":"1048","dname":"เขตทวีวัฒนา","stall":"2060","time":"06.00 - 20.00 น.","type":"ตลาดใหญ่ มีสินค้าจำหน่ายหลากหลาย","lat":13.74271619,"lng":100.3552032},
{"name":"ตลาดเวิลด์มาร์เก็ต3","address":"109/19ถ.ทวีวัฒนา แขวงทวีวัฒนา","dcode":"1048","dname":"เขตทวีวัฒนา","stall":"2060","time":"06.00 - 20.00 น.","type":"ตลาดใหญ่ มีสินค้าจำหน่ายหลากหลาย","lat":13.7426742,"lng":100.3546203},
{"name":"ตลาดใหม่ทุ่งครุ","address":"381 ถ. ประชาอุทิศฝั่งซ้าย ซ.ประชอุทิศ 61 แขวงบางมด","dcode":"1049","dname":"เขตทุ่งครุ","stall":"0","time":"06.00 - 10.30 และ 14.00 - 21.00 น","type":"อาหารสดและอาหารทะเล","lat":13.6451689,"lng":100.4993696},
{"name":"ตลาดทุ่งครุพลาซ่า","address":"381 4 ถ. ประชาอุทิศ แขวงบางมด เขตทุ่งครุ กรุงเทพมหานคร 10140","dcode":"1049","dname":"เขตทุ่งครุ","stall":"0","time":"05.00 - 10.00 และ 15.00 - 21.00 น.","type":"อาหาร เครื่องดื่ม เครื่องแต่งกาย และของใช้ทั่วไป","lat":13.64460563,"lng":100.4998374},
{"name":"ตลาดยิ่งรวย 76","address":"1/1 ซ.ประชาอุทิศ 76 แขวงทุ่งครุ เขตทุ่งครุ","dcode":"1049","dname":"เขตทุ่งครุ","stall":"0","time":"05.30 - 22.00 น.","type":"อาหารสดและอาหารทะเล","lat":13.62690811,"lng":100.5055208},
{"name":"ตลาดแม่สมศรี","address":"5/4 ถ.พุทธบูชา 36 แขวงบางมด เขตทุ่งครุ","dcode":"1049","dname":"เขตทุ่งครุ","stall":"0","time":"09.00 - 20.00 น.","type":"อาหารสดและอาหารทะเล","lat":13.64974704,"lng":100.4806066},
{"name":"ตลาดทิพย์พลาซ่า","address":"50/85 ซอย ทิพย์วรรณ 2 แขวงทุ่งครุ เขตทุ่งครุ กรุงเทพมหานคร 10140","dcode":"1049","dname":"เขตทุ่งครุ","stall":"240","time":"14.00 - 21.00 น.","type":"อาหารสดและอาหารทะเล","lat":13.62033469,"lng":100.5117639},
{"name":"ตลาดปิ่นทอง","address":"67/222 ถ.เอกชัย ซ.เอกชัย 44 แขวงบางบอน","dcode":"1050","dname":"เขตบางบอน","stall":"0","time":"ทุกวัน 00.00-12.00 น.,22.00-00.00 น.","type":"อาหารและเครื่องดื่ม","lat":13.68319727,"lng":100.4400828},
{"name":"ตลาดเอกชัย","address":"81/23 ถ.เอกชัย แขวงบางบอน","dcode":"1050","dname":"เขตบางบอน","stall":"0","time":"ทุกวัน 14.00-21.00 น.","type":"วัตถุดิบการเกษตร,อาหาร","lat":13.67544104,"lng":100.4260485},
{"name":"ตลาดศิริชัย","address":"1/2 ถ.เอกชัย แขวงบางบอน","dcode":"1050","dname":"เขตบางบอน","stall":"0","time":"เปิด 24 ชม.","type":"อาหารและเครื่องดื่ม","lat":13.67328497,"lng":100.4268491},
{"name":"ตลาดกลางสัตว์น้ำกรุงเทพบางบอน","address":"1 ถนนบางยอน 3 แขวงบางบอน","dcode":"1050","dname":"เขตบางบอน","stall":"0","time":"ทุกวัน 22.00-01.00 น., 06.00-12.00 น.","type":"จำหน่ายสัตว์น้ำ","lat":13.65043926,"lng":100.385771},
{"name":"ตลาดวันโอวัน","address":"1137 2 ถ. เอกชัย บางบอนใต้ เขตบางบอน กรุงเทพมหานคร 10150","dcode":"1050","dname":"เขตบางบอน","stall":"0","time":"ทุกวัน 16.00-22.00 น.","type":"อาหารและเครื่องดื่ม","lat":13.65500711,"lng":100.3933593}
]