[
    {"name": "Suvarnabhumi Airport","lat": 13.68109989,"lng":100.7470016,"region": "Bangkok (special administrative area)","elevation": 5,"type": "large_airport"},
{"name": "Don Mueang International Airport","lat": 13.91259956,"lng":100.6070023,"region": "Bangkok (special administrative area)","elevation": 9,"type": "large_airport"},
{"name": "Phuket International Airport","lat": 8.1132,"lng":98.316902,"region": "Phuket Province","elevation": 82,"type": "large_airport"},
{"name": "Chiang Mai International Airport","lat": 18.76679993,"lng":98.96260071,"region": "Chiang Mai Province","elevation": 1036,"type": "large_airport"},
{"name": "Samui Airport","lat": 9.54779,"lng":100.061996,"region": "Surat Thani Province","elevation": 64,"type": "medium_airport"},
{"name": "Krabi Airport","lat": 8.09912014,"lng":98.98619843,"region": "Krabi Province","elevation": 82,"type": "medium_airport"},
{"name": "Hat Yai International Airport","lat": 6.933209896,"lng":100.3929977,"region": "Songkhla Province","elevation": 90,"type": "medium_airport"},
{"name": "U-Tapao International Airport","lat": 12.67990017,"lng":101.0049973,"region": "Rayong Province","elevation": 42,"type": "medium_airport"},
{"name": "Udon Thani Airport","lat": 17.38640022,"lng":102.788002,"region": "Udon Thani Province","elevation": 579,"type": "medium_airport"},
{"name": "Mae Fah Luang - Chiang Rai International Airport","lat": 19.952299,"lng":99.882896,"region": "Chiang Rai Province","elevation": 1280,"type": "medium_airport"},
{"name": "Surat Thani Airport","lat": 9.132599831,"lng":99.13559723,"region": "Surat Thani Province","elevation": 20,"type": "medium_airport"},
{"name": "Mae Hong Son Airport","lat": 19.30130005,"lng":97.97579956,"region": "Mae Hong Son Province","elevation": 929,"type": "medium_airport"},
{"name": "Phitsanulok Airport","lat": 16.78289986,"lng":100.2789993,"region": "Phitsanulok Province","elevation": 154,"type": "medium_airport"},
{"name": "Mae Sot Airport","lat": 16.69989967,"lng":98.54509735,"region": "Tak Province","elevation": 690,"type": "medium_airport"},
{"name": "Sukhothai Airport","lat": 17.23800087,"lng":99.81819916,"region": "Sukhothai Province","elevation": 179,"type": "medium_airport"},
{"name": "Ubon Ratchathani Airport","lat": 15.25129986,"lng":104.8700027,"region": "Ubon Ratchathani Province","elevation": 406,"type": "medium_airport"},
{"name": "Bang Phra Airport","lat": 13.232426,"lng":100.956802,"region": "Chonburi Province","elevation": 90,"type": "small_airport"},
{"name": "Hua Hin Airport","lat": 12.63619995,"lng":99.95149994,"region": "Phetchaburi Province","elevation": 62,"type": "medium_airport"},
{"name": "Khon Kaen Airport","lat": 16.46660042,"lng":102.7839966,"region": "Khon Kaen Province","elevation": 670,"type": "medium_airport"},
{"name": "Trang Airport","lat": 7.50874,"lng":99.6166,"region": "Trang Province","elevation": 67,"type": "medium_airport"},
{"name": "Trat Airport","lat": 12.2746,"lng":102.319,"region": "Trat Province","elevation": 105,"type": "medium_airport"},
{"name": "Khorat Airport","lat": 14.9345,"lng":102.079002,"region": "Nakhon Ratchasima Province","elevation": 729,"type": "small_airport"},
{"name": "Pai Airport","lat": 19.372,"lng":98.436996,"region": "Mae Hong Son Province","elevation": 1676,"type": "small_airport"},
{"name": "Nakhon Phanom Airport","lat": 17.383801,"lng":104.642998,"region": "Nakhon Phanom Province","elevation": 587,"type": "medium_airport"},
{"name": "Chumphon Airport","lat": 10.7112,"lng":99.361702,"region": "Chumphon Province","elevation": 18,"type": "medium_airport"},
{"name": "Nakhon Ratchasima Airport","lat": 14.9495,"lng":102.313004,"region": "Nakhon Ratchasima Province","elevation": 765,"type": "medium_airport"},
{"name": "Takhli Airport","lat": 15.27729988,"lng":100.2959976,"region": "Nakhon Sawan Province","elevation": 107,"type": "medium_airport"},
{"name": "Eastern Flying Club Airport","lat": 12.902439,"lng":100.933227,"region": "Chonburi Province","elevation": 160,"type": "small_airport"},
{"name": "Photharam Airport","lat": 13.66860008,"lng":99.73139954,"region": "Ratchaburi Province","elevation": 88,"type": "small_airport"},
{"name": "Loei Airport","lat": 17.43910027,"lng":101.7220001,"region": "Loei Province","elevation": 860,"type": "medium_airport"},
{"name": "Roi Et Airport","lat": 16.11680031,"lng":103.7740021,"region": "Roi Et Province","elevation": 451,"type": "medium_airport"},
{"name": "Sakon Nakhon Airport","lat": 17.19510078,"lng":104.1190033,"region": "Sakon Nakhon Province","elevation": 529,"type": "medium_airport"},
{"name": "Lampang Airport","lat": 18.27090073,"lng":99.5042038,"region": "Lampang Province","elevation": 811,"type": "medium_airport"},
{"name": "Nan Airport","lat": 18.80789948,"lng":100.7829971,"region": "Nan Province","elevation": 685,"type": "medium_airport"},
{"name": "Nakhon Si Thammarat Airport","lat": 8.539620399,"lng":99.94470215,"region": "Nakhon Si Thammarat Province","elevation": 13,"type": "medium_airport"},
{"name": "Ranong Airport","lat": 9.77762,"lng":98.585503,"region": "Ranong Province","elevation": 57,"type": "medium_airport"},
{"name": "Phetchabun Airport","lat": 16.6760006,"lng":101.1949997,"region": "Phetchabun Province","elevation": 450,"type": "medium_airport"},
{"name": "Tak Airport","lat": 16.89599991,"lng":99.25330353,"region": "Tak Province","elevation": 478,"type": "medium_airport"},
{"name": "Khok Kathiam Airport","lat": 14.87460041,"lng":100.663002,"region": "Lopburi Province","elevation": 123,"type": "medium_airport"},
{"name": "Klong 15 Airfield","lat": 14.114705,"lng":100.949485,"region": "Nakhon Nayok Province","elevation": 15,"type": "small_airport"},
{"name": "Vanchanphen Airpark","lat": 13.94495,"lng":102.00432,"region": "Sa Kaeo Province","type": "small_airport"},
{"name": "Nok Airfield","lat": 18.6762,"lng":99.11157,"region": "Chiang Mai Province","type": "small_airport"},
{"name": "Thung Si Kan Airport","lat": 13.94571,"lng":100.57441,"region": "Bangkok (special administrative area)","elevation": 10,"type": "small_airport"},
{"name": "Dropzone Thailand Airport","lat": 12.6714,"lng":101.5476,"region": "Rayong Province","type": "small_airport"},
{"name": "Ko Chan Airport","lat": 13.3938,"lng":101.32055,"region": "Chonburi Province","type": "small_airport"},
{"name": "Mae Sariang Airport","lat": 18.180962,"lng":97.930627,"region": "Mae Hong Son Province","elevation": 750,"type": "small_airport"},
{"name": "Pattaya Airpark","lat": 12.8325,"lng":100.949444,"region": "Chonburi Province","elevation": 100,"type": "small_airport"},
{"name": "Best Ocean Airpark","lat": 13.54018,"lng":100.32936,"region": "Samut Sakhon Province","type": "small_airport"},
{"name": "Chiang Mai Airsports","lat": 18.70403,"lng":99.11917,"region": "Chiang Mai Province","elevation": 1020,"type": "small_airport"},
{"name": "Nong Khor Airfield","lat": 13.14027,"lng":101.04642,"region": "Chonburi Province","type": "small_airport"},
{"name": "Saha Group Airport","lat": 13.09147,"lng":100.96813,"region": "Chonburi Province","type": "small_airport"},
{"name": "Banana","lat": 13.14421,"lng":101.106062,"region": "Chonburi Province","type": "small_airport"},
{"name": "Phuket Airpark","lat": 8.018733,"lng":98.40291,"region": "Phuket Province","elevation": 20,"type": "small_airport"},
{"name": "Buri Ram Airport","lat": 15.22949982,"lng":103.2529984,"region": "Buriram Province","elevation": 590,"type": "medium_airport"},
{"name": "Narathiwat Airport","lat": 6.519919872,"lng":101.7429962,"region": "Narathiwat Province","elevation": 16,"type": "medium_airport"},
{"name": "Cha Eian Airport","lat": 8.471150398,"lng":99.95559692,"region": "Nakhon Si Thammarat Province","elevation": 44,"type": "medium_airport"},
{"name": "Surin Airport","lat": 14.86830044,"lng":103.4980011,"region": "Surin Province","elevation": 478,"type": "medium_airport"},
{"name": "Phrae Airport","lat": 18.13220024,"lng":100.1650009,"region": "Phrae Province","elevation": 538,"type": "medium_airport"},
{"name": "Pattani Airport","lat": 6.785459995,"lng":101.1539993,"region": "Pattani Province","elevation": 8,"type": "medium_airport"},
{"name": "Songkhla Airport","lat": 7.186560154,"lng":100.6080017,"region": "Songkhla Province","elevation": 12,"type": "medium_airport"},
{"name": "Betong International Airport","lat": 5.79,"lng":101.15,"region": "Yala Province","elevation": 761,"type": "medium_airport"},
{"name": "Kamphaeng Saen Airport","lat": 14.10200024,"lng":99.91719818,"region": "Suphan Buri Province","elevation": 30,"type": "medium_airport"},
{"name": "Lamphun Airport","lat": 18.546816,"lng":99.012029,"region": "Lamphun Province","elevation": 925,"type": "small_airport"},
{"name": "Sa Pran Nak Airport","lat": 14.94939995,"lng":100.6429977,"region": "Lopburi Province","elevation": 95,"type": "small_airport"},
{"name": "Rob Muang Airport","lat": 16.07040024,"lng":103.6460037,"region": "Roi Et Province","elevation": 459,"type": "small_airport"},
{"name": "Lanna Airfield","lat": 18.67614,"lng":99.10522,"region": "Chiang Mai Province","type": "small_airport"},
{"name": "Nakhon Sawan Airport","lat": 15.67300034,"lng":100.137001,"region": "Nakhon Sawan Province","elevation": 113,"type": "small_airport"},
{"name": "Khunan Phumipol Airport","lat": 17.23419952,"lng":99.05789948,"region": "Tak Province","elevation": 492,"type": "small_airport"},
{"name": "Sak Long Airport","lat": 16.82430077,"lng":101.2509995,"region": "Phetchabun Province","elevation": 500,"type": "small_airport"},
{"name": "Prachuap Airport","lat": 11.7883997,"lng":99.80470276,"region": "Prachuap Khiri Khan Province","elevation": 10,"type": "small_airport"},
{"name": "Khoun Khan Airport","lat": 6.661399841,"lng":100.0800018,"region": "Satun Province","elevation": 18,"type": "small_airport"},
{"name": "Udorn Air Base","lat": 17.38299942,"lng":102.8000031,"region": "Udon Thani Province","type": "small_airport"},
{"name": "Bang Phra Ultralightport","lat": 13.236033,"lng":100.994902,"region": "Chonburi Province","type": "small_airport"},
{"name": "Supawan Mini Airfield","lat": 13.85782,"lng":100.32493,"region": "Nonthaburi Province","type": "small_airport"},
{"name": "Old Betong Airport","lat": 5.78161,"lng":101.159256,"region": "Yala Province","type": "small_airport"},
{"name": "Old Chiang Rai Airport","lat": 19.885401,"lng":99.826797,"region": "Chiang Rai Province","elevation": 1312,"type": "closed"},
{"name": "Kabin Buri Airport","lat": 14.01966,"lng":101.70217,"region": "Prachin Buri Province","type": "small_airport"},
{"name": "Lat Ya Army Airfield","lat": 14.125242,"lng":99.446955,"region": "Kanchanaburi Province","type": "small_airport"},
{"name": "River Kwai Airfield","lat": 14.06445,"lng":99.36168,"region": "Kanchanaburi Province","type": "small_airport"},
{"name": "Khanong Phra Airport","lat": 14.63123,"lng":101.4659,"region": "Nakhon Ratchasima Province","type": "small_airport"},
{"name": "Chanthaburi Airstrip","lat": 12.63247,"lng":102.02603,"region": "Chanthaburi Province","type": "small_airport"},
{"name": "Lektop-Thames Airport","lat": 14.03662,"lng":100.69448,"region": "Pathum Thani Province","type": "small_airport"},
{"name": "Khlong Si Airfield","lat": 14.170617,"lng":100.691757,"region": "Pathum Thani Province","type": "small_airport"},
{"name": "Nam Phung Dam Airport","lat": 16.6522007,"lng":102.9670029,"region": "Khon Kaen Province","type": "small_airport"},
{"name": "Klaeng Airfield","lat": 12.709905,"lng":101.630542,"region": "Rayong Province","type": "small_airport"},
{"name": "Koh Mai Si Airport","lat": 11.71678,"lng":102.51975,"region": "Trat Province","type": "small_airport"},
{"name": "Kut Kho Kan Airport","lat": 16.15866,"lng":104.59257,"region": "Yasothon Province","type": "small_airport"},
{"name": "Storm Airport","lat": 13.99575,"lng":100.36536,"region": "Pathum Thani Province","type": "small_airport"},
{"name": "Seri Thai Airport","lat": 16.77324,"lng":104.03372,"region": "Kalasin Province","type": "small_airport"},
{"name": "TFT Airfield","lat": 14.08045,"lng":100.852589,"region": "Pathum Thani Province","type": "small_airport"},
{"name": "Lektop-Thames Airport Number 2","lat": 14.11717,"lng":100.76169,"region": "Pathum Thani Province","type": "small_airport"},
{"name": "Ongkarak Airport (Klong 16)","lat": 14.10993,"lng":101.00166,"region": "Nakhon Nayok Province","elevation": 6,"type": "small_airport"},
{"name": "Nong Prue Airport","lat": 12.893226,"lng":100.96015,"region": "Chonburi Province","type": "small_airport"},
{"name": "Pattaya Huai Yai Airport","lat": 12.8351,"lng":100.98118,"region": "Chonburi Province","type": "small_airport"},
{"name": "Phanom Sarakham Airport","lat": 13.7553,"lng":101.395,"region": "Chachoengsao Province","elevation": 166,"type": "small_airport"},
{"name": "Phayao Ban Chiang Kham Airport","lat": 19.5,"lng":100.2829971,"region": "Phayao Province","elevation": 1272,"type": "small_airport"},
{"name": "Khao E To Airport","lat": 14.0778,"lng":101.379997,"region": "Prachin Buri Province","elevation": 80,"type": "small_airport"},
{"name": "Prachom Klao Airfield","lat": 14.163603,"lng":101.337118,"region": "Prachin Buri Province","type": "small_airport"},
{"name": "Prachuap Khiri Khan Airport","lat": 12.41720009,"lng":99.86940002,"region": "Prachuap Khiri Khan Province","type": "small_airport"},
{"name": "Pran Buri Airport","lat": 12.38962,"lng":99.95801,"region": "Prachuap Khiri Khan Province","type": "small_airport"},
{"name": "Camp Burachat (Sanam Luang) Airfield","lat": 13.57376,"lng":99.75296,"region": "Ratchaburi Province","type": "small_airport"},
{"name": "Ratthaphum Airfield","lat": 7.1349,"lng":100.33063,"region": "Songkhla Province","type": "small_airport"},
{"name": "Hinzon Airport","lat": 13.77697,"lng":101.61345,"region": "Prachin Buri Province","type": "small_airport"},
{"name": "Kaeng Krachan Airfield","lat": 12.87173,"lng":99.79265,"region": "Phetchabun Province","type": "small_airport"},
{"name": "Uttaradit Airport","lat": 17.61700058,"lng":100.0999985,"region": "Uttaradit Province","elevation": 262,"type": "small_airport"},
{"name": "Watthana Nakhon Airport","lat": 13.769203,"lng":102.316017,"region": "Sa Kaeo Province","elevation": 200,"type": "small_airport"},
{"name": "Skydance Helipad","lat": 8.0779,"lng":98.3017,"region": "Phuket Province","type": "heliport"},
{"name": "Khao Khitchakut Heliport","lat": 12.836021,"lng":102.168767,"region": "Chanthaburi Province","type": "heliport"},
{"name": "Ko Pha-ngan Airport","lat": 9.741118,"lng":100.070686,"region": "Surat Thani Province","elevation": 900,"type": "closed"},
{"name": "Khuan Timun Helipad","lat": 6.83411,"lng":101.02211,"region": "Songkhla Province","type": "heliport"}
]