[
    {
        "id": 3163,
        "name": "ทต.หนองตาคง+",
        "lat": "13.153864",
        "lng": "102.392679",
        "year": 2566
    },
    {
        "id": 1597,
        "name": "บ่อขยะทต.ท่าคันโท",
        "lat": "16.922289",
        "lng": "103.223418",
        "year": 2566
    },
    {
        "id": 3413,
        "name": "บ่อขยะอบต.ชื่นชม",
        "lat": null,
        "lng": null,
        "year": 2566
    },
    {
        "id": 1576,
        "name": "บ่อขยะอบต.มะค่า",
        "lat": "16.270466",
        "lng": "103.377116",
        "year": 2566
    },
    {
        "id": 902,
        "name": "บ่อขยะทม.สระบุรี",
        "lat": "14.6718570",
        "lng": "100.9463248",
        "year": 2566
    },
    {
        "id": 819,
        "name": "บ่อขยะทม.สุพรรณบุรี",
        "lat": "14.5260",
        "lng": "100.0812",
        "year": 2566
    },
    {
        "id": 820,
        "name": "บ่อขยะทต.โพธิ์พระยา",
        "lat": "14.5601",
        "lng": "100.0937",
        "year": 2566
    },
    {
        "id": 821,
        "name": "บ่อขยะทต.ท่าเสด็จ",
        "lat": "14.5043",
        "lng": "100.0029",
        "year": 2566
    },
    {
        "id": 822,
        "name": "บ่อขยะทต.ศรีประจันต์",
        "lat": "14.6220",
        "lng": "100.1869",
        "year": 2566
    },
    {
        "id": 823,
        "name": "บ่อขยะทต.ดอนเจดีย์",
        "lat": "14.642028",
        "lng": "99.983249",
        "year": 2566
    },
    {
        "id": 824,
        "name": "บ่อขยะทต.สระกระโจม",
        "lat": "14.6215",
        "lng": "99.885764",
        "year": 2566
    },
    {
        "id": 825,
        "name": "บ่อขยะทม.สองพี่น้อง",
        "lat": "14.2400",
        "lng": "100.0100",
        "year": 2566
    },
    {
        "id": 827,
        "name": "บ่อขยะทต.ทุ่งคอก",
        "lat": "14.1791",
        "lng": "99.9469",
        "year": 2566
    },
    {
        "id": 828,
        "name": "บ่อขยะทต.บางปลาม้า",
        "lat": "14.184009",
        "lng": "100.12876",
        "year": 2566
    },
    {
        "id": 829,
        "name": "บ่อขยะทต.โคกคราม",
        "lat": "14.3930",
        "lng": "100.1577",
        "year": 2566
    },
    {
        "id": 830,
        "name": "บ่อขยะอบต.ไผ่กองดิน",
        "lat": "14.3544",
        "lng": "100.2390",
        "year": 2566
    },
    {
        "id": 831,
        "name": "บ่อขยะทต.ท้าวอู่ทอง",
        "lat": "14.3894",
        "lng": "99.8669",
        "year": 2566
    },
    {
        "id": 832,
        "name": "บ่อขยะทต.สระยายโสม",
        "lat": "14.2795",
        "lng": "99.8894",
        "year": 2566
    },
    {
        "id": 834,
        "name": "บ่อขยะอบต.ดอนคา",
        "lat": "14.4356",
        "lng": "99.8512",
        "year": 2566
    },
    {
        "id": 835,
        "name": "บ่อขยะทต.เขาพระ",
        "lat": "14.8584",
        "lng": "100.1111",
        "year": 2566
    },
    {
        "id": 836,
        "name": "บ่อขยะทต.นางบวช",
        "lat": "14.8355",
        "lng": "100.1171",
        "year": 2566
    },
    {
        "id": 837,
        "name": "บ่อขยะทต.บ่อกรุ",
        "lat": "14.8673",
        "lng": "99.8844",
        "year": 2566
    },
    {
        "id": 838,
        "name": "บ่อขยะทต.หนองกระทุ่ม",
        "lat": "14.8746",
        "lng": "99.8371",
        "year": 2566
    },
    {
        "id": 839,
        "name": "บ่อขยะอบต.ป่าสะแก",
        "lat": "14.8586",
        "lng": "99.9700",
        "year": 2566
    },
    {
        "id": 840,
        "name": "บ่อขยะทต.หนองหญ้าไซ",
        "lat": "14.7706",
        "lng": "99.9141",
        "year": 2566
    },
    {
        "id": 841,
        "name": "บ่อขยะอบต.หนองมะค่าโมง",
        "lat": "14.8563",
        "lng": "99.7059",
        "year": 2566
    },
    {
        "id": 842,
        "name": "สถานที่กำจัดขยะมูลฝอย+นายกิจจา+วงศ์ประเสริฐ",
        "lat": "14.3495",
        "lng": "99.8620",
        "year": 2566
    },
    {
        "id": 833,
        "name": "บ่อขยะทต.จรเข้สามพัน",
        "lat": "14.3336",
        "lng": "99.8352",
        "year": 2566
    },
    {
        "id": 2928,
        "name": "บ่อขยะอบต.ไผ่ขวาง",
        "lat": "14.4985",
        "lng": "100.1646",
        "year": 2566
    },
    {
        "id": 2929,
        "name": "บ่อขยะอบต.ดอนกำยาน",
        "lat": "14.4381",
        "lng": "100.0617",
        "year": 2566
    },
    {
        "id": 2930,
        "name": "บ่อขยะอบต.บางเลน",
        "lat": "14.1843",
        "lng": "100.0694",
        "year": 2566
    },
    {
        "id": 2931,
        "name": "บ่อขยะอบต.เขาพระ",
        "lat": "14.8584",
        "lng": "100.1111",
        "year": 2566
    },
    {
        "id": 2932,
        "name": "บ่อขยะอบต.หัวเขา",
        "lat": "14.8506",
        "lng": "100.0393",
        "year": 2566
    },
    {
        "id": 3921,
        "name": "บ่อขยะนายสวิง+อยู่สุวรรณ",
        "lat": "14.8414",
        "lng": "100.1013",
        "year": 2566
    },
    {
        "id": 1,
        "name": "บ่อขยะทม.เมืองแกนพัฒนา",
        "lat": "19.11440",
        "lng": "98.97240",
        "year": 2566
    },
    {
        "id": 2,
        "name": "บ่อขยะทต.สันมหาพน",
        "lat": "19.11350",
        "lng": "98.97320",
        "year": 2566
    },
    {
        "id": 3,
        "name": "บ่อขยะทต.แม่หอพระ+หมู่1",
        "lat": "19.11530",
        "lng": "99.06510",
        "year": 2566
    },
    {
        "id": 4,
        "name": "บ่อขยะทต.แม่หอพระ+หมู่2",
        "lat": "19.11970",
        "lng": "99.03550",
        "year": 2566
    },
    {
        "id": 5,
        "name": "บ่อขยะทต.แม่หอพระ+หมู่3",
        "lat": "19.11190",
        "lng": "99.01400",
        "year": 2566
    },
    {
        "id": 6,
        "name": "บ่อขยะทต.แม่หอพระ+หมู่5",
        "lat": "19.11620",
        "lng": "98.99460",
        "year": 2566
    },
    {
        "id": 7,
        "name": "บ่อขยะทต.แม่หอพระ+หมู่8",
        "lat": "19.10050",
        "lng": "99.07280",
        "year": 2566
    },
    {
        "id": 8,
        "name": "บ่อขยะทต.แม่หอพระ+หมู่9",
        "lat": "19.13610",
        "lng": "99.06110",
        "year": 2566
    },
    {
        "id": 9,
        "name": "บ่อขยะอบต.บ้านเป้า+หมู่1",
        "lat": "19.19950",
        "lng": "98.98740",
        "year": 2566
    },
    {
        "id": 10,
        "name": "บ่อขยะอบต.บ้านเป้า+หมู่2",
        "lat": "19.18310",
        "lng": "98.99770",
        "year": 2566
    },
    {
        "id": 11,
        "name": "บ่อขยะอบต.บ้านเป้า+หมู่3",
        "lat": "19.1882",
        "lng": "99.0079",
        "year": 2566
    },
    {
        "id": 12,
        "name": "บ่อขยะอบต.บ้านเป้า+หมู่4",
        "lat": "19.16960",
        "lng": "99.01570",
        "year": 2566
    },
    {
        "id": 13,
        "name": "บ่อขยะอบต.บ้านเป้า+หมู่5+",
        "lat": "19.17380",
        "lng": "99.02680",
        "year": 2566
    },
    {
        "id": 14,
        "name": "บ่อขยะอบต.บ้านเป้า+หมู่6",
        "lat": "19.16960",
        "lng": "99.01570",
        "year": 2566
    },
    {
        "id": 15,
        "name": "บ่อขยะอบต.บ้านเป้า+หมู่7",
        "lat": "19.17380",
        "lng": "99.02680",
        "year": 2566
    },
    {
        "id": 18,
        "name": "บ่อขยะอบต.สันป่ายาง+หมู่1",
        "lat": "19.05380",
        "lng": "98.85740",
        "year": 2566
    },
    {
        "id": 19,
        "name": "บ่อขยะอบต.สันป่ายาง+หมู่2+",
        "lat": "19.05220",
        "lng": "98.88660",
        "year": 2566
    },
    {
        "id": 20,
        "name": "บ่อขยะอบต.สันป่ายาง+หมู่3",
        "lat": "19.03150",
        "lng": "98.86910",
        "year": 2566
    },
    {
        "id": 21,
        "name": "บ่อขยะอบต.สันป่ายาง+หมู่4",
        "lat": "19.03020",
        "lng": "98.86770",
        "year": 2566
    },
    {
        "id": 22,
        "name": "บ่อขยะอบต.สันป่ายาง+หมู่5",
        "lat": "19.04270",
        "lng": "98.80250",
        "year": 2566
    },
    {
        "id": 23,
        "name": "บ่อขยะทม.แม่โจ้",
        "lat": "18.9245",
        "lng": "98.9981",
        "year": 2566
    },
    {
        "id": 24,
        "name": "บ่อขยะทต.สันกำแพง",
        "lat": "18.75310",
        "lng": "99.11200",
        "year": 2566
    },
    {
        "id": 25,
        "name": "บ่อขยะทต.เมืองงาย",
        "lat": "19.497314",
        "lng": "98.955996",
        "year": 2566
    },
    {
        "id": 26,
        "name": "บ่อขยะทต.เมืองนะ+หมู่3",
        "lat": "19.6371",
        "lng": "98.9558",
        "year": 2566
    },
    {
        "id": 27,
        "name": "บ่อขยะทต.เมืองนะ+หมู่6",
        "lat": "19.6225",
        "lng": "99.0003",
        "year": 2566
    },
    {
        "id": 28,
        "name": "บ่อขยะทต.เมืองนะ+หมู่7",
        "lat": "19.58220",
        "lng": "98.96210",
        "year": 2566
    },
    {
        "id": 29,
        "name": "บ่อขยะทต.เมืองนะ+หมู่10",
        "lat": "19.74660",
        "lng": "98.97170",
        "year": 2566
    },
    {
        "id": 30,
        "name": "บ่อขยะทต.ทุ่งข้าวพวง+หมู่1",
        "lat": "19.56040",
        "lng": "98.96100",
        "year": 2566
    },
    {
        "id": 31,
        "name": "บ่อขยะทต.ทุ่งข้าวพวง+หมู่2",
        "lat": "19.56280",
        "lng": "98.92940",
        "year": 2566
    },
    {
        "id": 33,
        "name": "บ่อขยะทต.ทุ่งข้าวพวง+หมู่4",
        "lat": "19.50780",
        "lng": "98.93300",
        "year": 2566
    },
    {
        "id": 34,
        "name": "บ่อขยะทต.ทุ่งข้าวพวง+หมู่5",
        "lat": "19.50670",
        "lng": "98.97060",
        "year": 2566
    },
    {
        "id": 35,
        "name": "บ่อขยะทต.ทุ่งข้าวพวง+หมู่6",
        "lat": "19.52730",
        "lng": "98.87360",
        "year": 2566
    },
    {
        "id": 36,
        "name": "บ่อขยะทต.ทุ่งข้าวพวง+หมู่7",
        "lat": "19.53160",
        "lng": "98.96850",
        "year": 2566
    },
    {
        "id": 37,
        "name": "บ่อขยะทต.แม่แจ่ม",
        "lat": "18.51780",
        "lng": "98.37810",
        "year": 2566
    },
    {
        "id": 38,
        "name": "บ่อขยะทต.ท่าผา+หมู่6",
        "lat": "18.466033",
        "lng": "98.388593",
        "year": 2566
    },
    {
        "id": 39,
        "name": "บ่อขยะทต.ท่าผา+หมู่10",
        "lat": "18.47770",
        "lng": "98.34740",
        "year": 2566
    },
    {
        "id": 40,
        "name": "บ่อขยะอบต.กองแขก+หมู่3",
        "lat": "18.30340",
        "lng": "98.36540",
        "year": 2566
    },
    {
        "id": 41,
        "name": "บ่อขยะอบต.กองแขก+หมู่7",
        "lat": "18.44610",
        "lng": "98.39590",
        "year": 2566
    },
    {
        "id": 42,
        "name": "บ่อขยะอบต.กองแขก+หมู่8",
        "lat": "18.25670",
        "lng": "98.23410",
        "year": 2566
    },
    {
        "id": 43,
        "name": "บ่อขยะอบต.กองแขก+หมู่11",
        "lat": "18.43390",
        "lng": "98.38950",
        "year": 2566
    },
    {
        "id": 44,
        "name": "บ่อขยะอบต.ช่างเคิ่ง+หมู่14",
        "lat": "18.51250",
        "lng": "98.33200",
        "year": 2566
    },
    {
        "id": 45,
        "name": "บ่อขยะอบต.ช่างเคิ่ง+หมู่9",
        "lat": "18.50610",
        "lng": "98.37840",
        "year": 2566
    },
    {
        "id": 46,
        "name": "บ่อขยะอบต.ช่างเคิ่ง+หมู่19",
        "lat": "18.30550",
        "lng": "98.24110",
        "year": 2566
    },
    {
        "id": 47,
        "name": "บ่อขยะอบต.ช่างเคิ่ง+หมู่15",
        "lat": "18.52090",
        "lng": "98.35120",
        "year": 2566
    },
    {
        "id": 48,
        "name": "บ่อขยะอบต.บ้านทับ",
        "lat": "18.46330",
        "lng": "98.30500",
        "year": 2566
    },
    {
        "id": 49,
        "name": "บ่อขยะทต.แม่แรม",
        "lat": "18.91040",
        "lng": "98.90070",
        "year": 2566
    },
    {
        "id": 50,
        "name": "บ่อขยะอบต.ดอนแก้ว+หมู่6",
        "lat": "18.85122417",
        "lng": "98.97882158",
        "year": 2566
    },
    {
        "id": 51,
        "name": "บ่อขยะอบต.ดอนแก้ว+หมู่4",
        "lat": "18.85503724",
        "lng": "98.97201462",
        "year": 2566
    },
    {
        "id": 52,
        "name": "บ่อขยะอบต.โป่งแยง+หมู่1",
        "lat": "18.87840",
        "lng": "98.78890",
        "year": 2566
    },
    {
        "id": 53,
        "name": "บ่อขยะอบต.โป่งแยง+หมู่2",
        "lat": "18.90290",
        "lng": "98.84000",
        "year": 2566
    },
    {
        "id": 54,
        "name": "บ่อขยะอบต.โป่งแยง+หมู่4",
        "lat": "18.86910",
        "lng": "98.80320",
        "year": 2566
    },
    {
        "id": 55,
        "name": "บ่อขยะอบต.โป่งแยง+หมู่6",
        "lat": "18.88600",
        "lng": "98.84390",
        "year": 2566
    },
    {
        "id": 56,
        "name": "บ่อขยะอบต.โป่งแยง+หมู่7",
        "lat": "18.85760",
        "lng": "98.79110",
        "year": 2566
    },
    {
        "id": 57,
        "name": "บ่อขยะอบต.โป่งแยง+หมู่8",
        "lat": "18.88090",
        "lng": "98.78330",
        "year": 2566
    },
    {
        "id": 58,
        "name": "บ่อขยะอบต.โป่งแยง+หมู่9",
        "lat": "18.84540",
        "lng": "98.83590",
        "year": 2566
    },
    {
        "id": 59,
        "name": "บ่อขยะอบต.สะลวง+หมู่1",
        "lat": "18.98740",
        "lng": "98.89530",
        "year": 2566
    },
    {
        "id": 60,
        "name": "บ่อขยะอบต.สะลวง+หมู่2",
        "lat": "19.00510",
        "lng": "98.87930",
        "year": 2566
    },
    {
        "id": 61,
        "name": "บ่อขยะอบต.สะลวง+หมู่3",
        "lat": "19.02250",
        "lng": "98.89020",
        "year": 2566
    },
    {
        "id": 62,
        "name": "บ่อขยะอบต.สะลวง+หมู่4",
        "lat": "19.03030",
        "lng": "98.88910",
        "year": 2566
    },
    {
        "id": 63,
        "name": "บ่อขยะทต.แม่อาย",
        "lat": "20.08690",
        "lng": "99.29080",
        "year": 2566
    },
    {
        "id": 64,
        "name": "บ่อขยะอบต.แม่ทะลบ",
        "lat": "19.73290",
        "lng": "99.18750",
        "year": 2566
    },
    {
        "id": 65,
        "name": "บ่อขยะอบต.ศรีดงเย็น+หมู่11",
        "lat": "19.65140",
        "lng": "99.14650",
        "year": 2566
    },
    {
        "id": 67,
        "name": "บ่อขยะทต.จอมทอง",
        "lat": "18.46550",
        "lng": "98.66620",
        "year": 2566
    },
    {
        "id": 68,
        "name": "บ่อขยะอบต.สันป่ายาง+หมู่6",
        "lat": "19.06360",
        "lng": "98.77580",
        "year": 2566
    },
    {
        "id": 69,
        "name": "บ่อขยะอบต.แม่สอย+หมู่1",
        "lat": "18.28150",
        "lng": "98.68560",
        "year": 2566
    },
    {
        "id": 70,
        "name": "บ่อขยะอบต.แม่สอย+หมู่2",
        "lat": "18.30190",
        "lng": "98.63120",
        "year": 2566
    },
    {
        "id": 71,
        "name": "บ่อขยะอบต.แม่สอย+หมู่3",
        "lat": "18.28070",
        "lng": "98.64290",
        "year": 2566
    },
    {
        "id": 72,
        "name": "บ่อขยะอบต.แม่สอย+หมู่5",
        "lat": "18.27110",
        "lng": "98.65970",
        "year": 2566
    },
    {
        "id": 73,
        "name": "บ่อขยะอบต.แม่สอย+หมู่7",
        "lat": "18.29090",
        "lng": "98.62410",
        "year": 2566
    },
    {
        "id": 74,
        "name": "บ่อขยะอบต.แม่สอย+หมู่11",
        "lat": "18.29520",
        "lng": "98.62880",
        "year": 2566
    },
    {
        "id": 75,
        "name": "บ่อขยะทต.ท่าเดื่อ",
        "lat": "17.9795",
        "lng": "98.717",
        "year": 2566
    },
    {
        "id": 76,
        "name": "บ่อขยะอบต.ดอยเต่า+หมู่1",
        "lat": "17.91820",
        "lng": "98.71560",
        "year": 2566
    },
    {
        "id": 77,
        "name": "บ่อขยะอบต.ดอยเต่า+หมู่4",
        "lat": "17.89760",
        "lng": "98.76560",
        "year": 2566
    },
    {
        "id": 78,
        "name": "บ่อขยะอบต.ดอยเต่า+หมู่7",
        "lat": "17.91660",
        "lng": "98.71660",
        "year": 2566
    },
    {
        "id": 79,
        "name": "บ่อขยะอบต.บงตัน+หมู่2+(เก่า)",
        "lat": "18.0217",
        "lng": "98.6685",
        "year": 2566
    },
    {
        "id": 80,
        "name": "บ่อขยะอบต.บงตัน+หมู่4",
        "lat": "18.00240",
        "lng": "98.67060",
        "year": 2566
    },
    {
        "id": 81,
        "name": "บ่อขยะอบต.บงตัน+หมู่5",
        "lat": "18.02940",
        "lng": "98.66690",
        "year": 2566
    },
    {
        "id": 82,
        "name": "บ่อขยะอบต.โปงทุ่ง+หมู่1",
        "lat": "17.86320",
        "lng": "98.72910",
        "year": 2566
    },
    {
        "id": 83,
        "name": "บ่อขยะอบต.โปงทุ่ง+หมู่2+(เก่า)",
        "lat": "17.8517",
        "lng": "98.7387",
        "year": 2566
    },
    {
        "id": 84,
        "name": "บ่อขยะอบต.โปงทุ่ง+หมู่2+(ใหม่)",
        "lat": "17.84160",
        "lng": "98.73030",
        "year": 2566
    },
    {
        "id": 85,
        "name": "บ่อขยะอบต.โปงทุ่ง+หมู่5",
        "lat": "17.84970",
        "lng": "98.76350",
        "year": 2566
    },
    {
        "id": 86,
        "name": "บ่อขยะอบต.โปงทุ่ง+หมู่6",
        "lat": "17.83100",
        "lng": "98.75800",
        "year": 2566
    },
    {
        "id": 87,
        "name": "บ่อขยะทต.แสนไห+หมู่1",
        "lat": "19.64770",
        "lng": "98.62910",
        "year": 2566
    },
    {
        "id": 88,
        "name": "บ่อขยะทต.แสนไห+หมู่2",
        "lat": "19.64420",
        "lng": "98.61250",
        "year": 2566
    },
    {
        "id": 89,
        "name": "บ่อขยะทต.แสนไห+หมู่3+(เก่า)",
        "lat": "19.63350",
        "lng": "98.64090",
        "year": 2566
    },
    {
        "id": 90,
        "name": "บ่อขยะทต.แสนไห+หมู่4",
        "lat": "19.61850",
        "lng": "98.61540",
        "year": 2566
    },
    {
        "id": 91,
        "name": "บ่อขยะทต.แสนไห+หมู่5",
        "lat": "19.60030",
        "lng": "98.62330",
        "year": 2566
    },
    {
        "id": 92,
        "name": "บ่อขยะอบต.เปียงหลวง+หมู่3",
        "lat": "19.65030",
        "lng": "98.62830",
        "year": 2566
    },
    {
        "id": 93,
        "name": "บ่อขยะอบต.เปียงหลวง+หมู่4",
        "lat": "19.66310",
        "lng": "98.65180",
        "year": 2566
    },
    {
        "id": 94,
        "name": "บ่อขยะอบต.เมืองแหง+หมู่1",
        "lat": "19.5875614",
        "lng": "98.608241",
        "year": 2566
    },
    {
        "id": 95,
        "name": "บ่อขยะอบต.เมืองแหง+หมู่2",
        "lat": "19.589142",
        "lng": "98.6472258",
        "year": 2566
    },
    {
        "id": 96,
        "name": "บ่อขยะอบต.เมืองแหง+หมู่12",
        "lat": "19.54484",
        "lng": "98.6696",
        "year": 2566
    },
    {
        "id": 97,
        "name": "บ่อขยะอบต.น้ำบ่อหลวง+หมู่4",
        "lat": "18.65740",
        "lng": "98.84200",
        "year": 2566
    },
    {
        "id": 98,
        "name": "บ่อขยะอบต.น้ำบ่อหลวง+หมู่6",
        "lat": "18.68070",
        "lng": "98.82980",
        "year": 2566
    },
    {
        "id": 99,
        "name": "บ่อขยะทต.เวียงฝาง",
        "lat": "19.95790",
        "lng": "99.21990",
        "year": 2566
    },
    {
        "id": 100,
        "name": "บ่อขยะทต.เวียงพร้าว",
        "lat": "19.37950",
        "lng": "99.19400",
        "year": 2566
    },
    {
        "id": 101,
        "name": "บ่อขยะทต.อมก๋อย",
        "lat": "17.81520",
        "lng": "98.36900",
        "year": 2566
    },
    {
        "id": 102,
        "name": "บ่อขยะอบต.ยางเปียง+หมู่13",
        "lat": "17.78310",
        "lng": "98.36070",
        "year": 2566
    },
    {
        "id": 103,
        "name": "บ่อขยะอบต.ยางเปียง+หมู่16",
        "lat": "17.71980",
        "lng": "98.52080",
        "year": 2566
    },
    {
        "id": 104,
        "name": "บ่อขยะอบต.ยางเปียง+หมู่2",
        "lat": "17.77370",
        "lng": "98.47870",
        "year": 2566
    },
    {
        "id": 105,
        "name": "บ่อขยะทต.บ่อหลวง+หมู่8",
        "lat": "18.15690",
        "lng": "98.40260",
        "year": 2566
    },
    {
        "id": 106,
        "name": "บ่อขยะทต.บ่อหลวง+หมู่1",
        "lat": "18.16220",
        "lng": "98.35020",
        "year": 2566
    },
    {
        "id": 107,
        "name": "บ่อขยะทต.บ่อหลวง+หมู่2",
        "lat": "18.12380",
        "lng": "98.35090",
        "year": 2566
    },
    {
        "id": 108,
        "name": "บ่อขยะทต.บ่อหลวง+หมู่3+(เก่า)",
        "lat": "18.11640",
        "lng": "98.37690",
        "year": 2566
    },
    {
        "id": 109,
        "name": "บ่อขยะทต.บ่อหลวง+หมู่3+(ใหม่)",
        "lat": "18.13160",
        "lng": "98.37800",
        "year": 2566
    },
    {
        "id": 110,
        "name": "บ่อขยะทต.เมืองนะ+หมู่1",
        "lat": "19.72880",
        "lng": "98.89630",
        "year": 2566
    },
    {
        "id": 111,
        "name": "บ่อขยะบริษัทท่าเชียงทอง+(เขต+พท.อบต.บ้านตาล)",
        "lat": "18.04860",
        "lng": "98.70700",
        "year": 2566
    },
    {
        "id": 112,
        "name": "บ่อขยะทต.สะเมิงใต้+หมู่1",
        "lat": "18.85040",
        "lng": "98.67590",
        "year": 2566
    },
    {
        "id": 113,
        "name": "บ่อขยะทต.สะเมิงใต้+หมู่3",
        "lat": "18.86650",
        "lng": "98.74950",
        "year": 2566
    },
    {
        "id": 114,
        "name": "บ่อขยะทต.สะเมิงใต้+หมู่5",
        "lat": "18.78780",
        "lng": "98.73450",
        "year": 2566
    },
    {
        "id": 115,
        "name": "บ่อขยะอบต.บ่อแก้ว",
        "lat": "18.8426",
        "lng": "98.5924",
        "year": 2566
    },
    {
        "id": 116,
        "name": "บ่อขยะอบต.แม่สาบ+หมู่4",
        "lat": "18.95380",
        "lng": "98.67350",
        "year": 2566
    },
    {
        "id": 117,
        "name": "บ่อขยะอบต.แม่สาบ+หมู่6",
        "lat": "19.01450",
        "lng": "98.67360",
        "year": 2566
    },
    {
        "id": 118,
        "name": "บ่อขยะอบต.แม่สาบ+หมู่10",
        "lat": "18.98630",
        "lng": "98.67610",
        "year": 2566
    },
    {
        "id": 119,
        "name": "บ่อขยะอบต.ออนกลาง+หมู่9",
        "lat": "18.77180",
        "lng": "99.24900",
        "year": 2566
    },
    {
        "id": 120,
        "name": "บ่อขยะอบต.ออนกลาง+หมู่8",
        "lat": "18.77980",
        "lng": "99.26850",
        "year": 2566
    },
    {
        "id": 121,
        "name": "บ่อขยะอบต.ออนกลาง+หมู่6",
        "lat": "18.76390",
        "lng": "99.27220",
        "year": 2566
    },
    {
        "id": 122,
        "name": "บ่อขยะอบต.ออนกลาง+หมู่5",
        "lat": "18.75990",
        "lng": "99.27240",
        "year": 2566
    },
    {
        "id": 123,
        "name": "บ่อขยะอบต.ออนกลาง+หมู่7",
        "lat": "18.76170",
        "lng": "99.25430",
        "year": 2566
    },
    {
        "id": 124,
        "name": "บ่อขยะอบต.ออนกลาง+หมู่4",
        "lat": "18.74600",
        "lng": "99.26160",
        "year": 2566
    },
    {
        "id": 125,
        "name": "บ่อขยะอบต.ออนกลาง+หมู่1",
        "lat": "18.73690",
        "lng": "99.24340",
        "year": 2566
    },
    {
        "id": 126,
        "name": "บ่อขยะอบต.ออนเหนือ+หมู่2",
        "lat": "18.80750",
        "lng": "99.25090",
        "year": 2566
    },
    {
        "id": 127,
        "name": "บ่อขยะอบต.ออนเหนือ+หมู่5",
        "lat": "18.79740",
        "lng": "99.25330",
        "year": 2566
    },
    {
        "id": 128,
        "name": "บ่อขยะอบต.ออนเหนือ+หมู่8",
        "lat": "18.78190",
        "lng": "99.24890",
        "year": 2566
    },
    {
        "id": 129,
        "name": "บ่อขยะอบต.ออนเหนือหมู่10",
        "lat": "18.79290",
        "lng": "99.26560",
        "year": 2566
    },
    {
        "id": 130,
        "name": "บ่อขยะทน.เชียงราย",
        "lat": "19.86999",
        "lng": "99.93439",
        "year": 2566
    },
    {
        "id": 131,
        "name": "บ่อขยะทต.นางแล+หมู่3+(เตาเผา)",
        "lat": "20.00625",
        "lng": "99.84515",
        "year": 2566
    },
    {
        "id": 132,
        "name": "บ่อขยะทต.บ้านดู่",
        "lat": "19.9743",
        "lng": "99.8050",
        "year": 2566
    },
    {
        "id": 133,
        "name": "บ่อขยะทต.แม่ยาว",
        "lat": "19.93802364",
        "lng": "99.77690492",
        "year": 2566
    },
    {
        "id": 134,
        "name": "บ่อขยะทต.ท่าสาย",
        "lat": "19.851170038179",
        "lng": "99.859937131405",
        "year": 2566
    },
    {
        "id": 135,
        "name": "บ่อขยะทต.เวียงเชียงแสน+",
        "lat": "20.30436",
        "lng": "100.0825",
        "year": 2566
    },
    {
        "id": 136,
        "name": "บ่อขยะทต.เวียง+",
        "lat": "20.26733268",
        "lng": "100.3992663",
        "year": 2566
    },
    {
        "id": 137,
        "name": "บ่อขยะทต.บุญเรือง+",
        "lat": "20.01577545",
        "lng": "100.3206256",
        "year": 2566
    },
    {
        "id": 138,
        "name": "บ่อขยะทต.ครึ่ง",
        "lat": "20.0347778",
        "lng": "100.2341894",
        "year": 2566
    },
    {
        "id": 139,
        "name": "บ่อขยะทต.เวียง",
        "lat": "20.3024161",
        "lng": "100.0814228",
        "year": 2566
    },
    {
        "id": 140,
        "name": "บ่อขยะทต.ห้วยซ้อ+หมู่9",
        "lat": "20.09808808",
        "lng": "100.3186462",
        "year": 2566
    },
    {
        "id": 141,
        "name": "บ่อขยะทต.ห้วยซ้อ+หมู่19",
        "lat": "20.01572611",
        "lng": "100.3028936",
        "year": 2566
    },
    {
        "id": 142,
        "name": "บ่อขยะทต.ม่วงยาย",
        "lat": "20.09545",
        "lng": "100.52287",
        "year": 2566
    },
    {
        "id": 143,
        "name": "บ่อขยะทต.หล่ายงาว",
        "lat": "20.0899",
        "lng": "100.4840",
        "year": 2566
    },
    {
        "id": 144,
        "name": "บ่อขยะทต.ท่าข้าม+หมู่5",
        "lat": "20.0544156",
        "lng": "100.5001014",
        "year": 2566
    },
    {
        "id": 145,
        "name": "บ่อขยะทต.ท่าข้าม+หมู่2",
        "lat": "20.055915",
        "lng": "100.505766",
        "year": 2566
    },
    {
        "id": 146,
        "name": "บ่อขยะอบต.ปอ+หมู่5+บ่อใหม่",
        "lat": "20.0156",
        "lng": "100.4789",
        "year": 2566
    },
    {
        "id": 147,
        "name": "บ่อขยะอบต.ปอ+หมู่5+บ่อเก่า",
        "lat": "20.0157",
        "lng": "100.4789",
        "year": 2566
    },
    {
        "id": 148,
        "name": "บ่อขยะทต.+บ้านปล้อง+",
        "lat": "19.66061",
        "lng": "100.09357",
        "year": 2566
    },
    {
        "id": 149,
        "name": "บ่อขยะทต.+เวียงเทิง+",
        "lat": "19.6875351",
        "lng": "100.1899499",
        "year": 2566
    },
    {
        "id": 150,
        "name": "บ่อขยะอบต.แม่ลอย+หมู่1",
        "lat": "19.5819",
        "lng": "100.0680",
        "year": 2566
    },
    {
        "id": 151,
        "name": "บ่อขยะอบต.แม่ลอย+หมู่2",
        "lat": "19.5482",
        "lng": "100.0690",
        "year": 2566
    },
    {
        "id": 152,
        "name": "บ่อขยะอบต.แม่ลอย+หมู่4",
        "lat": "19.5726",
        "lng": "100.0341",
        "year": 2566
    },
    {
        "id": 153,
        "name": "บ่อขยะอบต.แม่ลอย+หมู่5",
        "lat": "19.5843",
        "lng": "100.0770",
        "year": 2566
    },
    {
        "id": 154,
        "name": "บ่อขยะอบต.แม่ลอย+หมู่13",
        "lat": "19.5801",
        "lng": "100.0330",
        "year": 2566
    },
    {
        "id": 155,
        "name": "บ่อขยะอบต.แม่ลอย+หมู่6",
        "lat": "19.5894",
        "lng": "100.0630",
        "year": 2566
    },
    {
        "id": 156,
        "name": "บ่อขยะอบต.แม่ลอย+หมู่12",
        "lat": "19.5415",
        "lng": "100.034",
        "year": 2566
    },
    {
        "id": 157,
        "name": "บ่อขยะอบต.หนองแรด+หมู่6",
        "lat": "19.6285006",
        "lng": "100.1057626",
        "year": 2566
    },
    {
        "id": 158,
        "name": "บ่อขยะทต.ดงมะดะ",
        "lat": "19.7154",
        "lng": "99.6476",
        "year": 2566
    },
    {
        "id": 159,
        "name": "บ่อขยะทต.ป่าก่อดำ+บ่อที่+1",
        "lat": "19.7698",
        "lng": "99.761",
        "year": 2566
    },
    {
        "id": 160,
        "name": "บ่อขยะทต.ป่าก่อดำ+บ่อที่+2",
        "lat": "19.7699",
        "lng": "99.762",
        "year": 2566
    },
    {
        "id": 161,
        "name": "บ่อขยะทต.ป่าก่อดำ+บ่อที่+3",
        "lat": "19.77",
        "lng": "99.763",
        "year": 2566
    },
    {
        "id": 162,
        "name": "บ่อขยะอบต.บัวสลี+หมู่2+บ่อที่+1",
        "lat": "19.8165337",
        "lng": "99.7567057",
        "year": 2566
    },
    {
        "id": 163,
        "name": "บ่อขยะอบต.บัวสลี+หมู่2+บ่อที่+2",
        "lat": "19.8165337",
        "lng": "99.7567057",
        "year": 2566
    },
    {
        "id": 164,
        "name": "บ่อขยะอบต.บัวสลี+หมู่3",
        "lat": "19.8165337",
        "lng": "99.7567057",
        "year": 2566
    },
    {
        "id": 165,
        "name": "บ่อขยะอบต.บัวสลี+หมู่6",
        "lat": "19.8165337",
        "lng": "99.7567057",
        "year": 2566
    },
    {
        "id": 166,
        "name": "บ่อขยะอบต.บัวสลี+หมู่7",
        "lat": "19.816533",
        "lng": "99.7567057",
        "year": 2566
    },
    {
        "id": 167,
        "name": "บ่อขยะทต.บ้านเหล่า",
        "lat": "19.9924",
        "lng": "100.0480",
        "year": 2566
    },
    {
        "id": 168,
        "name": "บ่อขยะอบต.ทุ่งก่อ+หมู่9",
        "lat": "19.9951721",
        "lng": "100.034448",
        "year": 2566
    },
    {
        "id": 169,
        "name": "บ่อขยะอบต.ทุ่งก่อ+หมู่8",
        "lat": "19.9951721",
        "lng": "100.034448",
        "year": 2566
    },
    {
        "id": 170,
        "name": "บ่อขยะทต.เวียงชัย+",
        "lat": "19.86999",
        "lng": "99.93439",
        "year": 2566
    },
    {
        "id": 171,
        "name": "บ่อขยะอบต.ผางาม",
        "lat": "19.8687296",
        "lng": "100.0506324",
        "year": 2566
    },
    {
        "id": 172,
        "name": "บ่อขยะทต.ป่างิ้ว+",
        "lat": "99.4959",
        "lng": "19.2839",
        "year": 2566
    },
    {
        "id": 173,
        "name": "บ่อขยะอบต.แม่เจดีย์+หมู่6",
        "lat": "19.1942321",
        "lng": "99.5334588",
        "year": 2566
    },
    {
        "id": 174,
        "name": "บ่อขยะอบต.แม่เจดีย์+หมู่15",
        "lat": "19.1942321",
        "lng": "99.5334588",
        "year": 2566
    },
    {
        "id": 175,
        "name": "บ่อขยะอบต.แม่เจดีย์+หมู่4",
        "lat": "19.1703831",
        "lng": "99.4914791",
        "year": 2566
    },
    {
        "id": 176,
        "name": "บ่อขยะทต.สันมะค่า+",
        "lat": "19.45014",
        "lng": "100.02346",
        "year": 2566
    },
    {
        "id": 177,
        "name": "บ่อขยะทต.ศรีโพธิ์เงิน+",
        "lat": "19.4525",
        "lng": "99.9560",
        "year": 2566
    },
    {
        "id": 179,
        "name": "บ่อขยะทต.ป่าแดด",
        "lat": "19.5133",
        "lng": "100.006",
        "year": 2566
    },
    {
        "id": 180,
        "name": "บ่อขยะทต.โรงช้าง",
        "lat": "19.5225",
        "lng": "99.9456",
        "year": 2566
    },
    {
        "id": 181,
        "name": "บ่อขยะทต.จันจว้า+",
        "lat": "20.2039",
        "lng": "99.9840",
        "year": 2566
    },
    {
        "id": 182,
        "name": "บ่อขยะทต.แม่คำ+",
        "lat": "20.2208",
        "lng": "99.8496",
        "year": 2566
    },
    {
        "id": 183,
        "name": "บ่อขยะทต.แม่จัน+(บ่อเก่า)",
        "lat": "20.1472",
        "lng": "99.878",
        "year": 2566
    },
    {
        "id": 184,
        "name": "บ่อขยะทต.แม่จัน+(บ่อใหม่)",
        "lat": "20.1475",
        "lng": "99.8775",
        "year": 2566
    },
    {
        "id": 185,
        "name": "บ่อขยะทต.สันทราย+",
        "lat": "20.0275075",
        "lng": "99.722964",
        "year": 2566
    },
    {
        "id": 186,
        "name": "บ่อขยะทต.ป่าซาง",
        "lat": "20.18693",
        "lng": "99.80718",
        "year": 2566
    },
    {
        "id": 187,
        "name": "บ่อขยะอบต.ป่าตึง+หมู่3",
        "lat": "20.3892",
        "lng": "99.8953",
        "year": 2566
    },
    {
        "id": 188,
        "name": "บ่อขยะอบต.ป่าตึง+หมู่8",
        "lat": null,
        "lng": null,
        "year": 2566
    },
    {
        "id": 189,
        "name": "บ่อขยะอบต.ป่าตึง+หมู่10",
        "lat": null,
        "lng": null,
        "year": 2566
    },
    {
        "id": 190,
        "name": "บ่อขยะทต.แม่สรวย+(บ่อเก่า)",
        "lat": "19.646422",
        "lng": "99.544897",
        "year": 2566
    },
    {
        "id": 191,
        "name": "บ่อขยะทต.แม่สรวย+2+(บ่อใหม่)",
        "lat": "19.64642",
        "lng": "99.5449",
        "year": 2566
    },
    {
        "id": 192,
        "name": "บ่อขยะอบต.วาวี+หมู่3",
        "lat": "19.80946",
        "lng": "99.53466",
        "year": 2566
    },
    {
        "id": 193,
        "name": "บ่อขยะอบต.วาวี+หมู่12",
        "lat": "19.8655",
        "lng": "99.4896",
        "year": 2566
    },
    {
        "id": 194,
        "name": "บ่อขยะอบต.ศรีถ้อย",
        "lat": "19.59808",
        "lng": "99.7602",
        "year": 2566
    },
    {
        "id": 195,
        "name": "บ่อขยะทต.แม่สาย+",
        "lat": "20.4007",
        "lng": "99.8722",
        "year": 2566
    },
    {
        "id": 196,
        "name": "บ่อขยะทต.ห้วยไคร้+",
        "lat": "20.28714",
        "lng": "99.86391",
        "year": 2566
    },
    {
        "id": 197,
        "name": "บ่อขยะทต.พญาเม็งราย",
        "lat": "19.8894",
        "lng": "100.1610",
        "year": 2566
    },
    {
        "id": 198,
        "name": "บ่อขยะทต.ไม้ยา+หมู่7",
        "lat": "19.79978",
        "lng": "100.12598",
        "year": 2566
    },
    {
        "id": 199,
        "name": "บ่อขยะทต.ไม้ยา+หมู่8",
        "lat": "19.799783",
        "lng": "100.1260",
        "year": 2566
    },
    {
        "id": 200,
        "name": "บ่อขยะอบต.แม่เปา+หมู่1",
        "lat": "19.91631",
        "lng": "100.12203",
        "year": 2566
    },
    {
        "id": 201,
        "name": "บ่อขยะอบต.แม่เปา+หมู่14",
        "lat": "19.8895",
        "lng": "100.126",
        "year": 2566
    },
    {
        "id": 202,
        "name": "บ่อขยะอบต.แม่ต๋ำ+หมู่10",
        "lat": "19.9407",
        "lng": "100.2313",
        "year": 2566
    },
    {
        "id": 203,
        "name": "บ่อขยะอบต.แม่ต๋ำ+หมู่7",
        "lat": "19.9407",
        "lng": "100.2313",
        "year": 2566
    },
    {
        "id": 204,
        "name": "บ่อขยะอบต.ตาดควัน+หมู่3",
        "lat": "19.9782",
        "lng": "100.1995",
        "year": 2566
    },
    {
        "id": 205,
        "name": "บ่อขยะอบต.ตาดควัน+หมู่4",
        "lat": "19.9968",
        "lng": "100.1804",
        "year": 2566
    },
    {
        "id": 206,
        "name": "บ่อขยะทต.เมืองพาน+",
        "lat": "19.5614",
        "lng": "99.7409",
        "year": 2566
    },
    {
        "id": 207,
        "name": "บ่อขยะอบต.ทรายขาว+หมู่3",
        "lat": "19.6883111",
        "lng": "99.7224297",
        "year": 2566
    },
    {
        "id": 208,
        "name": "บ่อขยะอบต.ทรายขาว+หมู่6",
        "lat": "19.6883111",
        "lng": "99.7224297",
        "year": 2566
    },
    {
        "id": 209,
        "name": "บ่อขยะอบต.ทรายขาว+หมู่14",
        "lat": "19.6883111",
        "lng": "99.7224297",
        "year": 2566
    },
    {
        "id": 210,
        "name": "บ่อขยะอบต.ทรายขาว+หมู่4",
        "lat": "19.6883111",
        "lng": "99.7224297",
        "year": 2566
    },
    {
        "id": 211,
        "name": "บ่อขยะอบต.ทรายขาว+หมู่1",
        "lat": "19.6883111",
        "lng": "99.7224297",
        "year": 2566
    },
    {
        "id": 212,
        "name": "บ่อขยะอบต.ทรายขาว+หมู่16",
        "lat": "19.6590 ",
        "lng": "99.7262",
        "year": 2566
    },
    {
        "id": 213,
        "name": "บ่อขยะอบต.ทรายขาว+หมู่5",
        "lat": null,
        "lng": null,
        "year": 2566
    },
    {
        "id": 214,
        "name": "บ่อขยะอบต.เทอดไทย+หมู่1+(บ่อเก่า)",
        "lat": "20.238007",
        "lng": "99.67926",
        "year": 2566
    },
    {
        "id": 215,
        "name": "บ่อขยะอบต.เทอดไทย+หมู่1+(บ่อใหม่)",
        "lat": "20.32739",
        "lng": "99.5766",
        "year": 2566
    },
    {
        "id": 216,
        "name": "บ่อขยะอบต.เทอดไทย+หมู่15",
        "lat": "20.3274",
        "lng": " 99.5766",
        "year": 2566
    },
    {
        "id": 217,
        "name": "บ่อขยะอบต.แม่สลองใน+บ่อที่+1",
        "lat": "20.2500561",
        "lng": "99.6478737",
        "year": 2566
    },
    {
        "id": 218,
        "name": "บ่อขยะอบต.แม่สลองใน+บ่อที่+2",
        "lat": "20.2500561",
        "lng": "99.6478737",
        "year": 2566
    },
    {
        "id": 219,
        "name": "บ่อขยะอบต.แม่สลองนอก",
        "lat": "20.15686",
        "lng": "99.61071",
        "year": 2566
    },
    {
        "id": 220,
        "name": "บ่อขยะทม.แม่ฮ่องสอน",
        "lat": "19.225486",
        "lng": "97.931684",
        "year": 2566
    },
    {
        "id": 221,
        "name": "บ่อขยะอบต.ปางหมู+หมู่1",
        "lat": "19.366522",
        "lng": "97.953399",
        "year": 2566
    },
    {
        "id": 222,
        "name": "บ่อขยะอบต.ปางหมู+หมู่3",
        "lat": "19.326487",
        "lng": "97.952683",
        "year": 2566
    },
    {
        "id": 223,
        "name": "บ่อขยะอบต.ปางหมู+หมู่4",
        "lat": "19.390511",
        "lng": "97.874525",
        "year": 2566
    },
    {
        "id": 224,
        "name": "บ่อขยะอบต.ปางหมู+หมู่7",
        "lat": "19.334882",
        "lng": "97.940169",
        "year": 2566
    },
    {
        "id": 225,
        "name": "บ่อขยะอบต.หมอกจำแป่+หมู่1",
        "lat": "19.42551",
        "lng": "97.966137",
        "year": 2566
    },
    {
        "id": 226,
        "name": "บ่อขยะอบต.หมอกจำแป่+หมู่2",
        "lat": "19.406508",
        "lng": "97.947401",
        "year": 2566
    },
    {
        "id": 227,
        "name": "บ่อขยะอบต.หมอกจำแป่+หมู่5",
        "lat": "19.506166",
        "lng": "97.918209",
        "year": 2566
    },
    {
        "id": 228,
        "name": "บ่อขยะอบต.หมอกจำแป่+หมู่6",
        "lat": "19.4269361",
        "lng": "97.9558041",
        "year": 2566
    },
    {
        "id": 229,
        "name": "บ่อขยะอบต.หมอกจำแป่+หมู่7",
        "lat": "19.428691",
        "lng": "97.922637",
        "year": 2566
    },
    {
        "id": 230,
        "name": "บ่อขยะทต.แม่ลาน้อย",
        "lat": "18.403069",
        "lng": "97.940708",
        "year": 2566
    },
    {
        "id": 231,
        "name": "บ่อขยะอบต.ขุนแม่ลาน้อย+หมู่1",
        "lat": "18.625938",
        "lng": "98.113922",
        "year": 2566
    },
    {
        "id": 232,
        "name": "บ่อขยะอบต.ขุนแม่ลาน้อย+หมู่2",
        "lat": "18.598898",
        "lng": "98.16112",
        "year": 2566
    },
    {
        "id": 233,
        "name": "บ่อขยะอบต.ขุนแม่ลาน้อย+หมู่3",
        "lat": "18.58304",
        "lng": "98.155558",
        "year": 2566
    },
    {
        "id": 234,
        "name": "บ่อขยะอบต.ขุนแม่ลาน้อย+หมู่4",
        "lat": "18.6221341",
        "lng": "98.1128447",
        "year": 2566
    },
    {
        "id": 235,
        "name": "บ่อขยะอบต.ท่าผาปุ้ม+หมู่5",
        "lat": "18.291257",
        "lng": "97.928362",
        "year": 2566
    },
    {
        "id": 236,
        "name": "บ่อขยะอบต.ท่าผาปุ้ม+หมู่4",
        "lat": "18.310771",
        "lng": "97.917721",
        "year": 2566
    },
    {
        "id": 237,
        "name": "บ่อขยะอบต.ท่าผาปุ้ม+หมู่8",
        "lat": "18.3097876",
        "lng": "97.9113786",
        "year": 2566
    },
    {
        "id": 238,
        "name": "บ่อขยะอบต.แม่ลาน้อย+หมู่10",
        "lat": "18.34634",
        "lng": "97.936891",
        "year": 2566
    },
    {
        "id": 239,
        "name": "บ่อขยะอบต.แม่ลาหลวง+หมู่8",
        "lat": "18.461349",
        "lng": "97.929613",
        "year": 2566
    },
    {
        "id": 240,
        "name": "บ่อขยะอบต.แม่ลาหลวง+หมู่4",
        "lat": "18.54407",
        "lng": "97.905469",
        "year": 2566
    },
    {
        "id": 241,
        "name": "บ่อขยะอบต.ห้วยห้อม+หมู่6",
        "lat": "18.3566842",
        "lng": "98.0679316",
        "year": 2566
    },
    {
        "id": 242,
        "name": "บ่อขยะทต.แม่สะเรียง",
        "lat": "18.172423",
        "lng": "97.900425",
        "year": 2566
    },
    {
        "id": 243,
        "name": "บ่อขยะทต.แม่ยวม",
        "lat": "18.082358",
        "lng": "97.914661",
        "year": 2566
    },
    {
        "id": 244,
        "name": "บ่อขยะอบต.บ้านกาศ",
        "lat": "18.230157",
        "lng": "97.901236",
        "year": 2566
    },
    {
        "id": 245,
        "name": "บ่อขยะอบต.แม่เหาะ",
        "lat": "18.161538",
        "lng": "98.043243",
        "year": 2566
    },
    {
        "id": 246,
        "name": "บ่อขยะทต.ขุนยวม",
        "lat": "18.8579762",
        "lng": "97.944932",
        "year": 2566
    },
    {
        "id": 247,
        "name": "บ่อขยะอบต.เมืองปอน+หมู่1+",
        "lat": "18.769575",
        "lng": "97.932502",
        "year": 2566
    },
    {
        "id": 248,
        "name": "บ่อขยะอบต.เมืองปอน+หมู่4",
        "lat": "18.752897",
        "lng": "97.936306",
        "year": 2566
    },
    {
        "id": 249,
        "name": "บ่อขยะอบต.เมืองปอน+หมู่3",
        "lat": "18.69999",
        "lng": "97.913271",
        "year": 2566
    },
    {
        "id": 250,
        "name": "บ่อขยะอบต.เมืองปอน+หมู่9",
        "lat": "18.622229",
        "lng": "97.948269",
        "year": 2566
    },
    {
        "id": 251,
        "name": "บ่อขยะอบต.แม่เงา",
        "lat": "18.813373",
        "lng": "97.888831",
        "year": 2566
    },
    {
        "id": 252,
        "name": "บ่อขยะอบต.แม่อูคอ+หมู่4",
        "lat": "18.837165",
        "lng": "98.052144",
        "year": 2566
    },
    {
        "id": 253,
        "name": "บ่อขยะอบต.แม่อูคอ+หมู่3",
        "lat": "18.866093",
        "lng": "98.083013",
        "year": 2566
    },
    {
        "id": 254,
        "name": "บ่อขยะอบต.แม่อูคอ+หมู่6",
        "lat": "18.823568",
        "lng": "97.924541",
        "year": 2566
    },
    {
        "id": 255,
        "name": "บ่อขยะทต.ปาย",
        "lat": "19.377808",
        "lng": "98.434909",
        "year": 2566
    },
    {
        "id": 256,
        "name": "บ่อขยะอบต.ทุ่งยาว+หมู่9",
        "lat": "19.3125927",
        "lng": "98.4420748",
        "year": 2566
    },
    {
        "id": 257,
        "name": "บ่อขยะอบต.ทุ่งยาว+หมู่1",
        "lat": "19.3125429",
        "lng": "98.4420891",
        "year": 2566
    },
    {
        "id": 258,
        "name": "บ่อขยะอบต.แม่นาเติง+หมู่1",
        "lat": "19.391084",
        "lng": "98.429368",
        "year": 2566
    },
    {
        "id": 259,
        "name": "บ่อขยะอบต.แม่นาเติง+หมู่2+(บ่อ+1)",
        "lat": "19.3915618",
        "lng": "98.4271159",
        "year": 2566
    },
    {
        "id": 260,
        "name": "บ่อขยะอบต.แม่นาเติง+หมู่2+(บ่อ+2)",
        "lat": null,
        "lng": null,
        "year": 2566
    },
    {
        "id": 261,
        "name": "บ่อขยะอบต.แม่นาเติง+หมู่3",
        "lat": "19.394542",
        "lng": "98.400291",
        "year": 2566
    },
    {
        "id": 262,
        "name": "บ่อขยะอบต.แม่นาเติง+หมู่5+",
        "lat": "19.381679",
        "lng": "98.435934",
        "year": 2566
    },
    {
        "id": 263,
        "name": "บ่อขยะอบต.แม่นาเติง+หมู่6",
        "lat": "19.400399",
        "lng": "98.437622",
        "year": 2566
    },
    {
        "id": 264,
        "name": "บ่อขยะอบต.แม่นาเติง+หมู่11",
        "lat": "19.400399",
        "lng": "98.437622",
        "year": 2566
    },
    {
        "id": 265,
        "name": "บ่อขยะอบต.แม่ฮี้+หมู่2",
        "lat": "19.324806",
        "lng": "98.458814",
        "year": 2566
    },
    {
        "id": 266,
        "name": "บ่อขยะอบต.เวียงใต้",
        "lat": "19.351629",
        "lng": "98.41827",
        "year": 2566
    },
    {
        "id": 267,
        "name": "บ่อขยะอบต.เวียงเหนือ",
        "lat": "19.39578",
        "lng": "98.47338",
        "year": 2566
    },
    {
        "id": 268,
        "name": "บ่อขยะอบต.ถ้ำลอด",
        "lat": "19.5728281",
        "lng": "98.2767507",
        "year": 2566
    },
    {
        "id": 269,
        "name": "บ่อขยะอบต.สบป่อง",
        "lat": "19.5172779",
        "lng": "98.2472229",
        "year": 2566
    },
    {
        "id": 271,
        "name": "บ่อขยะอบต.แม่คะตวน+หมู่5",
        "lat": "18.067348",
        "lng": "97.934245",
        "year": 2566
    },
    {
        "id": 272,
        "name": "บ่อขยะอบต.แม่คะตวน+หมู่1",
        "lat": "18.026085",
        "lng": "97.923073",
        "year": 2566
    },
    {
        "id": 273,
        "name": "บ่อขยะอบต.แม่คะตวน+หมู่2",
        "lat": "18.019967",
        "lng": "97.916678",
        "year": 2566
    },
    {
        "id": 274,
        "name": "บ่อขยะอบต.แม่สวด",
        "lat": "17.929743",
        "lng": "97.950479",
        "year": 2566
    },
    {
        "id": 275,
        "name": "บ่อขยะอบต.สบเมย+หมู่2",
        "lat": "17.956368",
        "lng": "97.927424",
        "year": 2566
    },
    {
        "id": 276,
        "name": "บ่อขยะทต.เวียงยอง",
        "lat": "18.5765637",
        "lng": "99.01571",
        "year": 2566
    },
    {
        "id": 277,
        "name": "บ่อขยะอบต.ศรีบัวบาน+หมู่1",
        "lat": "18.5202809",
        "lng": "99.0791738",
        "year": 2566
    },
    {
        "id": 278,
        "name": "บ่อขยะอบต.ศรีบัวบาน+หมู่3",
        "lat": "18.5188006",
        "lng": "99.081088",
        "year": 2566
    },
    {
        "id": 279,
        "name": "บ่อขยะอบต.ศรีบัวบาน+หมู่2+",
        "lat": "18.5188006",
        "lng": "99.081088",
        "year": 2566
    },
    {
        "id": 280,
        "name": "บ่อขยะอบต.ศรีบัวบาน+หมู่5",
        "lat": "18.533024",
        "lng": "99.085058",
        "year": 2566
    },
    {
        "id": 281,
        "name": "บ่อขยะอบต.ศรีบัวบาน+หมู่7",
        "lat": "18.533024",
        "lng": "99.085058",
        "year": 2566
    },
    {
        "id": 282,
        "name": "บ่อขยะอบต.ศรีบัวบาน+หมู่8+",
        "lat": "18.5188006",
        "lng": "99.081088",
        "year": 2566
    },
    {
        "id": 283,
        "name": "บ่อขยะอบต.ศรีบัวบาน+หมู่9+",
        "lat": "18.467925",
        "lng": "99.050559",
        "year": 2566
    },
    {
        "id": 284,
        "name": "บ่อขยะอบต.ศรีบัวบาน+หมู่10",
        "lat": "18.5188006",
        "lng": "99.081088",
        "year": 2566
    },
    {
        "id": 285,
        "name": "บ่อขยะทต.หนองล่อง+หมู่1",
        "lat": "18.4008746",
        "lng": "98.7166461",
        "year": 2566
    },
    {
        "id": 286,
        "name": "บ่อขยะทต.หนองล่อง+หมู่4",
        "lat": null,
        "lng": null,
        "year": 2566
    },
    {
        "id": 288,
        "name": "บ่อขยะทต.ทากาศ",
        "lat": "18.4163472",
        "lng": "99.0020451",
        "year": 2566
    },
    {
        "id": 290,
        "name": "บ่อขยะทต.ทาทุ่งหลวง",
        "lat": "18.445768",
        "lng": "99.032360",
        "year": 2566
    },
    {
        "id": 291,
        "name": "บ่อขยะอบต.ทาแม่ลอบ+หมู่1",
        "lat": "18.2664091",
        "lng": "98.9398498",
        "year": 2566
    },
    {
        "id": 292,
        "name": "บ่อขยะอบต.ทาแม่ลอบ+หมู่2",
        "lat": "18.247574",
        "lng": "98.959504",
        "year": 2566
    },
    {
        "id": 293,
        "name": "บ่อขยะอบต.ตะเคียนปม+หมู่1",
        "lat": "18.0903476",
        "lng": "99.0114327",
        "year": 2566
    },
    {
        "id": 294,
        "name": "บ่อขยะอบต.ตะเคียนปม+หมู่3",
        "lat": "18.110546",
        "lng": "99.007628",
        "year": 2566
    },
    {
        "id": 295,
        "name": "บ่อขยะอบต.ตะเคียนปม+หมู่6",
        "lat": "18.057088",
        "lng": "99.037173",
        "year": 2566
    },
    {
        "id": 296,
        "name": "บ่อขยะอบต.ตะเคียนปม+หมู่7",
        "lat": "18.064729",
        "lng": "99.013985",
        "year": 2566
    },
    {
        "id": 297,
        "name": "บ่อขยะอบต.ตะเคียนปม+หมู่10",
        "lat": "18.126101",
        "lng": "99.013622",
        "year": 2566
    },
    {
        "id": 298,
        "name": "บ่อขยะอบต.ตะเคียนปม+หมู่12",
        "lat": "18.077707",
        "lng": "99.029457",
        "year": 2566
    },
    {
        "id": 299,
        "name": "บ่อขยะทต.ศรีเตี้ย+หมู่3",
        "lat": "18.384788",
        "lng": "98.7296916",
        "year": 2566
    },
    {
        "id": 300,
        "name": "บ่อขยะทต.ศรีเตี้ย+หมู่1",
        "lat": "18.37790",
        "lng": "98.738475",
        "year": 2566
    },
    {
        "id": 301,
        "name": "บ่อขยะทต.ศรีเตี้ย+หมู่2",
        "lat": "18.37650",
        "lng": "98.73850",
        "year": 2566
    },
    {
        "id": 302,
        "name": "บ่อขยะทต.ศรีเตี้ย+หมู่4",
        "lat": "18.384788",
        "lng": "98.7296916",
        "year": 2566
    },
    {
        "id": 303,
        "name": "บ่อขยะทต.ศรีเตี้ย+หมู่5",
        "lat": "18.364148",
        "lng": "98.742585",
        "year": 2566
    },
    {
        "id": 304,
        "name": "บ่อขยะอบต.หนองปลาสะวาย",
        "lat": "18.326254",
        "lng": "98.715757",
        "year": 2566
    },
    {
        "id": 305,
        "name": "บ่อขยะทต.ป่าซาง",
        "lat": "18.50180",
        "lng": "98.93230",
        "year": 2566
    },
    {
        "id": 306,
        "name": "บ่อขยะอบต.น้ำดิบ+หมู่2",
        "lat": "18.44370",
        "lng": "98.823145",
        "year": 2566
    },
    {
        "id": 307,
        "name": "บ่อขยะอบต.น้ำดิบ+หมู่9",
        "lat": "18.435961",
        "lng": "98.79427",
        "year": 2566
    },
    {
        "id": 308,
        "name": "บ่อขยะทต.บ้านเรือน",
        "lat": "18.5077611",
        "lng": "98.875961",
        "year": 2566
    },
    {
        "id": 310,
        "name": "บ่อขยะทต.ลี้+(บ่อเดิม+ทต.วังดิน)",
        "lat": "17.79880",
        "lng": "98.93800",
        "year": 2566
    },
    {
        "id": 311,
        "name": "บ่อขยะทต.ดงดำ",
        "lat": "17.728785",
        "lng": "99.029493",
        "year": 2566
    },
    {
        "id": 312,
        "name": "บ่อขยะทต.ลี้",
        "lat": "17.79880",
        "lng": "98.93800",
        "year": 2566
    },
    {
        "id": 313,
        "name": "บ่อขยะทต.ศรีวิชัย+หมู่12",
        "lat": "18.048223",
        "lng": "98.911361",
        "year": 2566
    },
    {
        "id": 314,
        "name": "บ่อขยะทต.ศรีวิชัย+หมู่11",
        "lat": "18.05520",
        "lng": "98.87690",
        "year": 2566
    },
    {
        "id": 315,
        "name": "บ่อขยะทต.ก้อ+หมู่1",
        "lat": "17.619",
        "lng": "98.801",
        "year": 2566
    },
    {
        "id": 316,
        "name": "บ่อขยะทต.ก้อ+หมู่2",
        "lat": "17.639172",
        "lng": "98.785065",
        "year": 2566
    },
    {
        "id": 317,
        "name": "บ่อขยะทต.ก้อ+หมู่3",
        "lat": "17.6390066",
        "lng": "98.785088",
        "year": 2566
    },
    {
        "id": 318,
        "name": "บ่อขยะทต.ก้อ+หมู่4",
        "lat": "17.6390066",
        "lng": "98.785088",
        "year": 2566
    },
    {
        "id": 319,
        "name": "บ่อขยะอบต.นาทราย+หมู่1",
        "lat": "17.716674",
        "lng": "98.979355",
        "year": 2566
    },
    {
        "id": 320,
        "name": "บ่อขยะอบต.นาทราย+หมู่2",
        "lat": "17.6887861",
        "lng": "98.9784476",
        "year": 2566
    },
    {
        "id": 321,
        "name": "บ่อขยะอบต.นาทราย+หมู่3",
        "lat": "17.73340",
        "lng": "98.92130",
        "year": 2566
    },
    {
        "id": 322,
        "name": "บ่อขยะอบต.นาทราย+หมู่4",
        "lat": "17.685001",
        "lng": "98.979274",
        "year": 2566
    },
    {
        "id": 323,
        "name": "บ่อขยะอบต.นาทราย+หมู่5",
        "lat": "17.674987",
        "lng": "98.99208",
        "year": 2566
    },
    {
        "id": 324,
        "name": "บ่อขยะอบต.นาทราย+หมู่16",
        "lat": "17.716656",
        "lng": "98.979327",
        "year": 2566
    },
    {
        "id": 325,
        "name": "บ่อขยะอบต.นาทราย+หมู่10",
        "lat": "17.6891494",
        "lng": "98.9786654",
        "year": 2566
    },
    {
        "id": 326,
        "name": "บ่อขยะอบต.นาทราย+หมู่14",
        "lat": "17.6891494",
        "lng": "98.9786654",
        "year": 2566
    },
    {
        "id": 328,
        "name": "บ่อขยะอบต.นาทราย+หมู่19",
        "lat": "17.693696",
        "lng": "99.025405",
        "year": 2566
    },
    {
        "id": 329,
        "name": "บ่อขยะอบต.ป่าไผ่+หมู่1",
        "lat": "17.877998",
        "lng": "98.912428",
        "year": 2566
    },
    {
        "id": 330,
        "name": "บ่อขยะอบต.ป่าไผ่+หมู่3",
        "lat": "17.813668",
        "lng": "98.931728",
        "year": 2566
    },
    {
        "id": 331,
        "name": "บ่อขยะอบต.ป่าไผ่+หมู่4+(บ่อ+1)",
        "lat": "17.885563",
        "lng": "98.93239",
        "year": 2566
    },
    {
        "id": 332,
        "name": "บ่อขยะอบต.ป่าไผ่+หมู่12+(บ่อ+1)",
        "lat": "17.8028456",
        "lng": "98.9490107",
        "year": 2566
    },
    {
        "id": 333,
        "name": "บ่อขยะอบต.ป่าไผ่+หมู่12+(บ่อ+2)",
        "lat": "17.833996",
        "lng": "98.908287",
        "year": 2566
    },
    {
        "id": 334,
        "name": "บ่อขยะอบต.แม่ลาน+หมู่7",
        "lat": "17.7434",
        "lng": "98.8299",
        "year": 2566
    },
    {
        "id": 335,
        "name": "บ่อขยะอบต.แม่ลาน+หมู่3",
        "lat": "17.7388255",
        "lng": "98.8368746",
        "year": 2566
    },
    {
        "id": 336,
        "name": "บ่อขยะอบต.แม่ลาน+หมู่2",
        "lat": "17.7947",
        "lng": "98.8032",
        "year": 2566
    },
    {
        "id": 337,
        "name": "บ่อขยะทน.ลำปาง",
        "lat": "18.2346",
        "lng": "100.6817",
        "year": 2566
    },
    {
        "id": 338,
        "name": "บ่อขยะน.ส.นงเยาว์+วงศ์อ๊อด",
        "lat": null,
        "lng": null,
        "year": 2566
    },
    {
        "id": 339,
        "name": "บ่อขยะทต.เกาะคา",
        "lat": "18.182599",
        "lng": "99.421592",
        "year": 2566
    },
    {
        "id": 340,
        "name": "บ่อขยะทต.ไหล่หิน",
        "lat": "18.204900",
        "lng": "99.321100",
        "year": 2566
    },
    {
        "id": 341,
        "name": "บ่อขยะทต.นาแก้ว+หมู่3",
        "lat": "18.110200",
        "lng": "99.306200",
        "year": 2566
    },
    {
        "id": 342,
        "name": "บ่อขยะทต.นาแก้ว+หมู่4",
        "lat": "18.110186",
        "lng": "99.306129",
        "year": 2566
    },
    {
        "id": 343,
        "name": "บ่อขยะทต.นาแก้ว+หมู่2",
        "lat": "18.142982",
        "lng": "99.337326",
        "year": 2566
    },
    {
        "id": 345,
        "name": "บ่อขยะอบต.นาแส่ง+หมู่2",
        "lat": "18.092666",
        "lng": "99.359983",
        "year": 2566
    },
    {
        "id": 346,
        "name": "บ่อขยะอบต.นาแส่ง+หมู่3",
        "lat": "18.096606",
        "lng": "99.388449",
        "year": 2566
    },
    {
        "id": 347,
        "name": "บ่อขยะอบต.นาแส่ง+หมู่5",
        "lat": "18.125092",
        "lng": "99.376289",
        "year": 2566
    },
    {
        "id": 348,
        "name": "บ่อขยะอบต.นาแส่ง+หมู่6",
        "lat": "18.092657",
        "lng": "99.359955",
        "year": 2566
    },
    {
        "id": 349,
        "name": "บ่อขยะทต.ลำปางหลวง",
        "lat": "18.250188",
        "lng": "99.360500",
        "year": 2566
    },
    {
        "id": 351,
        "name": "บ่อขยะทต.เวียงมอก+หมู่7",
        "lat": "17.348792",
        "lng": "99.421581",
        "year": 2566
    },
    {
        "id": 352,
        "name": "บ่อขยะทต.เวียงมอก+หมู่13",
        "lat": "17.332475",
        "lng": "99.435096",
        "year": 2566
    },
    {
        "id": 353,
        "name": "บ่อขยะทต.เวียงมอก+หมู่4",
        "lat": "17.407848",
        "lng": "99.364802",
        "year": 2566
    },
    {
        "id": 354,
        "name": "บ่อขยะทต.เวียงมอก+หมู่8",
        "lat": "17.509423",
        "lng": "99.342433",
        "year": 2566
    },
    {
        "id": 355,
        "name": "บ่อขยะทต.เวียงมอก+หมู่6",
        "lat": "17.382468",
        "lng": "99.310227",
        "year": 2566
    },
    {
        "id": 356,
        "name": "บ่อขยะทต.เวียงมอก+หมู่9",
        "lat": "17.335154",
        "lng": "99.454001",
        "year": 2566
    },
    {
        "id": 357,
        "name": "บ่อขยะทม.ล้อมแรด",
        "lat": "17.620327",
        "lng": "99.186103",
        "year": 2566
    },
    {
        "id": 358,
        "name": "บ่อขยะทต.เถินบุรี+หมู่2",
        "lat": "17.602639",
        "lng": "99.170995",
        "year": 2566
    },
    {
        "id": 359,
        "name": "บ่อขยะทต.เถินบุรี+หมู่5",
        "lat": "17.561465",
        "lng": "99.176365",
        "year": 2566
    },
    {
        "id": 369,
        "name": "บ่อขยะอบต.+นาโป่ง+หมู่1",
        "lat": "17.640896",
        "lng": "99.185199",
        "year": 2566
    },
    {
        "id": 370,
        "name": "บ่อขยะอบต.แม่ปะ+หมู่1",
        "lat": "17.624626",
        "lng": "99.265394",
        "year": 2566
    },
    {
        "id": 371,
        "name": "บ่อขยะอบต.แม่ปะ+หมู่2",
        "lat": "17.631587",
        "lng": "99.27187",
        "year": 2566
    },
    {
        "id": 372,
        "name": "บ่อขยะอบต.แม่ปะ+หมู่3",
        "lat": "17.664326",
        "lng": "99.300929",
        "year": 2566
    },
    {
        "id": 373,
        "name": "บ่อขยะอบต.แม่ปะ+หมู่4",
        "lat": "17.6518063",
        "lng": "99.2670431",
        "year": 2566
    },
    {
        "id": 374,
        "name": "บ่อขยะอบต.แม่ปะ+หมู่5",
        "lat": "17.6516059",
        "lng": "99.2667685",
        "year": 2566
    },
    {
        "id": 375,
        "name": "บ่อขยะทต.เสริมงาม",
        "lat": "18.056810",
        "lng": "99.228268",
        "year": 2566
    },
    {
        "id": 376,
        "name": "บ่อขยะอบต.วิเชตนคร+หมู่3",
        "lat": "18.709714",
        "lng": "99.544615",
        "year": 2566
    },
    {
        "id": 379,
        "name": "บ่อขยะทต.บ้านสา+หมู่5",
        "lat": "18.76992812",
        "lng": "99.61015061",
        "year": 2566
    },
    {
        "id": 380,
        "name": "บ่อขยะทต.ทุ่งผึ้ง+หมู่2+(บ่อ+1)",
        "lat": "18.927400",
        "lng": "99.645800",
        "year": 2566
    },
    {
        "id": 381,
        "name": "บ่อขยะอบต.แจ้ห่ม+หมู่5",
        "lat": "18.701469",
        "lng": "99.604385",
        "year": 2566
    },
    {
        "id": 382,
        "name": "บ่อขยะอบต.ปงดอน+หมู่2",
        "lat": "18.783212",
        "lng": "99.632155",
        "year": 2566
    },
    {
        "id": 383,
        "name": "บ่อขยะอบต.ปงดอน+หมู่7",
        "lat": "18.732630",
        "lng": "100.006060",
        "year": 2566
    },
    {
        "id": 384,
        "name": "บ่อขยะอบต.ปงดอน+หมู่3",
        "lat": "18.748103",
        "lng": "99.629026",
        "year": 2566
    },
    {
        "id": 385,
        "name": "บ่อขยะอบต.เมืองมาย+หมู่1",
        "lat": "18.6118789",
        "lng": "99.6256598",
        "year": 2566
    },
    {
        "id": 386,
        "name": "บ่อขยะอบต.เมืองมาย+หมู่3",
        "lat": "18.614606",
        "lng": "99.624695",
        "year": 2566
    },
    {
        "id": 387,
        "name": "บ่อขยะอบต.เมืองมาย+หมู่5",
        "lat": "18.5915000",
        "lng": "99.629000",
        "year": 2566
    },
    {
        "id": 388,
        "name": "บ่อขยะอบต.เมืองมาย+หมู่6",
        "lat": "18.614600",
        "lng": "99.624700",
        "year": 2566
    },
    {
        "id": 390,
        "name": "บ่อขยะทต.สิริราช",
        "lat": "18.001890",
        "lng": "99.446387",
        "year": 2566
    },
    {
        "id": 391,
        "name": "บ่อขยะทต.ป่าตันนาครัว",
        "lat": "18.140788",
        "lng": "99.488791",
        "year": 2566
    },
    {
        "id": 392,
        "name": "บ่อขยะทต.แม่ทะ",
        "lat": "18.1575575",
        "lng": "99.5402469",
        "year": 2566
    },
    {
        "id": 397,
        "name": "บ่อขยะทต.พระบาทวังตวง+หมู่1",
        "lat": "17.4380279",
        "lng": "99.1550947",
        "year": 2566
    },
    {
        "id": 398,
        "name": "บ่อขยะทต.พระบาทวังตวง+หมู่2",
        "lat": "17.4381099",
        "lng": "99.1566239",
        "year": 2566
    },
    {
        "id": 399,
        "name": "บ่อขยะทต.พระบาทวังตวง+หมู่4",
        "lat": "17.4380279",
        "lng": "99.1550947",
        "year": 2566
    },
    {
        "id": 400,
        "name": "บ่อขยะทต.พระบาทวังตวง+หมู่5",
        "lat": "17.4379956",
        "lng": "99.1567741",
        "year": 2566
    },
    {
        "id": 401,
        "name": "บ่อขยะทต.พระบาทวังตวง+หมู่7",
        "lat": "17.4379956",
        "lng": "99.1567741",
        "year": 2566
    },
    {
        "id": 402,
        "name": "บ่อขยะอบต.แม่พริก+หมู่4",
        "lat": "17.479854",
        "lng": "99.132440",
        "year": 2566
    },
    {
        "id": 403,
        "name": "บ่อขยะอบต.แม่พริก+หมู่6",
        "lat": "17.515963",
        "lng": "99.018832",
        "year": 2566
    },
    {
        "id": 404,
        "name": "บ่อขยะอบต.แม่พริก+หมู่7",
        "lat": "17.463528",
        "lng": "99.103166",
        "year": 2566
    },
    {
        "id": 405,
        "name": "บ่อขยะอบต.แม่พริก+หมู่9",
        "lat": "17.487245",
        "lng": "99.088909",
        "year": 2566
    },
    {
        "id": 406,
        "name": "บ่อขยะอบต.แม่พริก+หมู่10",
        "lat": "17.535633",
        "lng": "98.988656",
        "year": 2566
    },
    {
        "id": 407,
        "name": "บ่อขยะอบต.แม่พริก+หมู่11+(บ่อ+1)",
        "lat": "17.545439",
        "lng": "98.977707",
        "year": 2566
    },
    {
        "id": 408,
        "name": "บ่อขยะอบต.แม่พริก+หมู่11+(บ่อ+2)",
        "lat": "17.571439",
        "lng": "99.078678",
        "year": 2566
    },
    {
        "id": 409,
        "name": "บ่อขยะอบต.แม่พริก+หมู่1+(บ้านนาริน)",
        "lat": "17.578098",
        "lng": "99.086503",
        "year": 2566
    },
    {
        "id": 410,
        "name": "บ่อขยะอบต.แม่พริก+หมู่2+(บ้านผาปังหลวง)",
        "lat": "17.556951",
        "lng": "99.095765",
        "year": 2566
    },
    {
        "id": 411,
        "name": "บ่อขยะอบต.แม่พริก+หมู่3+(บ้านผาปังกลาง)",
        "lat": "17.566513",
        "lng": "99.099578",
        "year": 2566
    },
    {
        "id": 412,
        "name": "บ่อขยะทต.หลวงใต้+หมู่6",
        "lat": "18.732500",
        "lng": "100.006200",
        "year": 2566
    },
    {
        "id": 416,
        "name": "บ่อขยะทต.เมืองปาน+หมู่1",
        "lat": "18.362500",
        "lng": "99.302400",
        "year": 2566
    },
    {
        "id": 417,
        "name": "บ่อขยะทต.เมืองปาน+หมู่4",
        "lat": "18.7657623",
        "lng": "99.5173478",
        "year": 2566
    },
    {
        "id": 433,
        "name": "บ่อขยะทต.บ้านใหม่",
        "lat": "19.184393",
        "lng": "99.604676",
        "year": 2566
    },
    {
        "id": 436,
        "name": "บ่อขยะอบต.ร่องเคาะ+หมู่12",
        "lat": "19.026800",
        "lng": "99.625100",
        "year": 2566
    },
    {
        "id": 437,
        "name": "บ่อขยะอบต.วังซ้าย+หมู่1",
        "lat": "19.170615",
        "lng": "99.634274",
        "year": 2566
    },
    {
        "id": 438,
        "name": "บ่อขยะอบต.วังซ้าย+หมู่2",
        "lat": "19.158700",
        "lng": "99.648236",
        "year": 2566
    },
    {
        "id": 439,
        "name": "บ่อขยะอบต.วังซ้าย+หมู่3",
        "lat": "19.168100",
        "lng": "99.660674",
        "year": 2566
    },
    {
        "id": 440,
        "name": "บ่อขยะอบต.วังซ้าย+หมู่4",
        "lat": "19.172562",
        "lng": "99.635765",
        "year": 2566
    },
    {
        "id": 441,
        "name": "บ่อขยะอบต.วังซ้าย+หมู่5",
        "lat": "19.179918",
        "lng": "99.666266",
        "year": 2566
    },
    {
        "id": 442,
        "name": "บ่อขยะอบต.วังซ้าย+หมู่6",
        "lat": "19.120679",
        "lng": "99.636080",
        "year": 2566
    },
    {
        "id": 443,
        "name": "บ่อขยะอบต.วังซ้าย+หมู่7",
        "lat": "19.131112",
        "lng": "99.655250",
        "year": 2566
    },
    {
        "id": 444,
        "name": "บ่อขยะอบต.วังซ้าย+หมู่8",
        "lat": "19.125229",
        "lng": "99.645025",
        "year": 2566
    },
    {
        "id": 445,
        "name": "บ่อขยะอบต.วังซ้าย+หมู่9",
        "lat": "19.184297",
        "lng": "99.604699",
        "year": 2566
    },
    {
        "id": 446,
        "name": "บ่อขยะอบต.วังทรายคำ+หมู่19",
        "lat": "19.061303",
        "lng": "99.633772",
        "year": 2566
    },
    {
        "id": 447,
        "name": "บ่อขยะอบต.วังทรายคำ+หมู่3",
        "lat": "19.078009",
        "lng": "99.634966",
        "year": 2566
    },
    {
        "id": 448,
        "name": "บ่อขยะอบต.วังทรายคำ+หมู่6",
        "lat": "19.071661",
        "lng": "99.649038",
        "year": 2566
    },
    {
        "id": 449,
        "name": "บ่อขยะอบต.วังทอง+หมู่4",
        "lat": "19.014750",
        "lng": "99.682689",
        "year": 2566
    },
    {
        "id": 450,
        "name": "บ่อขยะอบต.วังทอง+หมู่7",
        "lat": "19.086289",
        "lng": "99.691370",
        "year": 2566
    },
    {
        "id": 452,
        "name": "บ่อขยะทต.สบปราบ+หมู่15",
        "lat": "17.902393",
        "lng": "99.362774",
        "year": 2566
    },
    {
        "id": 453,
        "name": "บ่อขยะอบต.นายาง+หมู่3",
        "lat": "17.890500",
        "lng": "99.301800",
        "year": 2566
    },
    {
        "id": 454,
        "name": "บ่อขยะอบต.นายาง+หมู่4",
        "lat": "17.895700",
        "lng": "99.321100",
        "year": 2566
    },
    {
        "id": 455,
        "name": "บ่อขยะอบต.นายาง+หมู่6",
        "lat": "17.924225",
        "lng": "99.282074",
        "year": 2566
    },
    {
        "id": 456,
        "name": "บ่อขยะอบต.นายาง+หมู่7",
        "lat": "17.930000",
        "lng": "99.269800",
        "year": 2566
    },
    {
        "id": 457,
        "name": "บ่อขยะอบต.นายาง+หมู่8",
        "lat": "17.872100",
        "lng": "99.304700",
        "year": 2566
    },
    {
        "id": 458,
        "name": "บ่อขยะอบต.นายาง+หมู่9",
        "lat": "17.909000",
        "lng": "99.281900",
        "year": 2566
    },
    {
        "id": 459,
        "name": "บ่อขยะอบต.แม่กัวะ+หมู่2",
        "lat": "17.945742",
        "lng": "99.324100",
        "year": 2566
    },
    {
        "id": 462,
        "name": "บ่อขยะอบต.แม่กัวะ+หมู่3",
        "lat": "17.961400",
        "lng": "99.345100",
        "year": 2566
    },
    {
        "id": 469,
        "name": "บ่อขยะอบต.แม่สุก+หมู่3",
        "lat": "18.810984",
        "lng": "99.661099",
        "year": 2566
    },
    {
        "id": 470,
        "name": "บ่อขยะทต.แม่ปุ+หมู่2",
        "lat": "17.540932",
        "lng": "99.142612",
        "year": 2566
    },
    {
        "id": 472,
        "name": "บ่อขยะทม.พะเยา",
        "lat": "19.11000",
        "lng": "99.96000",
        "year": 2566
    },
    {
        "id": 473,
        "name": "บ่อขยะทต.แม่กา",
        "lat": "19.043250",
        "lng": "99.911768",
        "year": 2566
    },
    {
        "id": 474,
        "name": "บ่อขยะทต.ท่าวังทอง",
        "lat": "19.22910",
        "lng": "99.92430",
        "year": 2566
    },
    {
        "id": 475,
        "name": "บ่อขยะทต.แม่ปืม",
        "lat": "19.28940",
        "lng": "99.89980",
        "year": 2566
    },
    {
        "id": 476,
        "name": "บ่อขยะทม.ดอกคำใต้",
        "lat": "19.12370",
        "lng": "99.99092",
        "year": 2566
    },
    {
        "id": 477,
        "name": "บ่อขยะทต.บ้านถ้ำ",
        "lat": "19.12540",
        "lng": "100.07070",
        "year": 2566
    },
    {
        "id": 478,
        "name": "บ่อขยะทต.หนองหล่ม+หมู่5",
        "lat": "18.949581",
        "lng": "100.06953",
        "year": 2566
    },
    {
        "id": 480,
        "name": "บ่อขยะอบต.บ้านปิน+หมู่1",
        "lat": "18.63000",
        "lng": "99.54000",
        "year": 2566
    },
    {
        "id": 481,
        "name": "บ่อขยะอบต.บ้านปิน+หมู่7",
        "lat": "19.031657",
        "lng": "100.035332",
        "year": 2566
    },
    {
        "id": 484,
        "name": "บ่อขยะอบต.คือเวียง",
        "lat": "19.065444",
        "lng": "100.017982",
        "year": 2566
    },
    {
        "id": 487,
        "name": "บ่อขยะทต.ฝายกวาง+หมู่7+(เอกชน)",
        "lat": "19.43820",
        "lng": "100.30770",
        "year": 2566
    },
    {
        "id": 489,
        "name": "บ่อขยะอบต.เจดีย์คำ",
        "lat": "19.53920",
        "lng": "100.34280",
        "year": 2566
    },
    {
        "id": 490,
        "name": "บ่อขยะอบต.เชียงบาน+หมู่3",
        "lat": "19.516422",
        "lng": "100.24784",
        "year": 2566
    },
    {
        "id": 493,
        "name": "บ่อขยะอบต.ร่มเย็น+หมู่7",
        "lat": "19.54010",
        "lng": "100.36440",
        "year": 2566
    },
    {
        "id": 494,
        "name": "บ่อขยะทต.เชียงม่วน+หมู่6",
        "lat": "18.900779",
        "lng": "100.287584",
        "year": 2566
    },
    {
        "id": 498,
        "name": "บ่อขยะทต.ห้วยข้าวก่ำ",
        "lat": "19.356253",
        "lng": "100.103503",
        "year": 2566
    },
    {
        "id": 499,
        "name": "บ่อขยะทต.จุน+หมู่1",
        "lat": "19.33260",
        "lng": "100.20040",
        "year": 2566
    },
    {
        "id": 500,
        "name": "บ่อขยะทต.เวียงลอ",
        "lat": "19.439916",
        "lng": "100.11362",
        "year": 2566
    },
    {
        "id": 501,
        "name": "บ่อขยะทต.หงส์หิน+หมู่11",
        "lat": "19.50469",
        "lng": "100.092045",
        "year": 2566
    },
    {
        "id": 502,
        "name": "บ่อขยะอบต.พระธาตุขิงแกง+หมู่1",
        "lat": "19.27250",
        "lng": "100.24480",
        "year": 2566
    },
    {
        "id": 503,
        "name": "บ่อขยะอบต.พระธาตุขิงแกง+หมู่5",
        "lat": "19.26700",
        "lng": "100.17250",
        "year": 2566
    },
    {
        "id": 504,
        "name": "บ่อขยะอบต.ห้วยยางขาม+หมู่2",
        "lat": "19.39330",
        "lng": "100.181425",
        "year": 2566
    },
    {
        "id": 505,
        "name": "บ่อขยะทต.งิม+หมู่2",
        "lat": "19.281961",
        "lng": "100.391944",
        "year": 2566
    },
    {
        "id": 506,
        "name": "บ่อขยะทต.ปง",
        "lat": "19.15860",
        "lng": "100.25730",
        "year": 2566
    },
    {
        "id": 507,
        "name": "บ่อขยะอบต.งิม",
        "lat": "19.28370",
        "lng": "100.36680",
        "year": 2566
    },
    {
        "id": 508,
        "name": "บ่อขยะอบต.นาปรัง+หมู่7",
        "lat": "19.11103",
        "lng": "100.19565",
        "year": 2566
    },
    {
        "id": 509,
        "name": "บ่อขยะอบต.นาปรัง+หมู่3",
        "lat": "19.11430",
        "lng": "100.17100",
        "year": 2566
    },
    {
        "id": 510,
        "name": "บ่อขยะอบต.ออย+หมู่9",
        "lat": "19.281817",
        "lng": "100.317136",
        "year": 2566
    },
    {
        "id": 512,
        "name": "บ่อขยะทต.สบบง",
        "lat": "19.580278",
        "lng": "100.256044",
        "year": 2566
    },
    {
        "id": 513,
        "name": "บ่อขยะอบต.ทุ่งกล้วย+หมู่1",
        "lat": "19.587166",
        "lng": "100.339154",
        "year": 2566
    },
    {
        "id": 514,
        "name": "บ่อขยะอบต.ป่าสัก",
        "lat": "17.79360",
        "lng": "99.50480",
        "year": 2566
    },
    {
        "id": 518,
        "name": "บ่อขยะเอกชน+ทต.ป่าแมต",
        "lat": "18.186239",
        "lng": "100.104682",
        "year": 2566
    },
    {
        "id": 519,
        "name": "บ่อขยะอบต.เหมืองหม้อ",
        "lat": null,
        "lng": null,
        "year": 2566
    },
    {
        "id": 520,
        "name": "บ่อขยะทต.เวียงต้า+หมู่4",
        "lat": "18.232007",
        "lng": "99.998537",
        "year": 2566
    },
    {
        "id": 521,
        "name": "บ่อขยะทต.เวียงต้า+หมู่10",
        "lat": "18.29530",
        "lng": "100.04080",
        "year": 2566
    },
    {
        "id": 522,
        "name": "บ่อขยะทต.วังหงส์",
        "lat": "18.258787",
        "lng": "100.183494",
        "year": 2566
    },
    {
        "id": 523,
        "name": "บ่อขยะอบต.ร่องฟอง",
        "lat": null,
        "lng": null,
        "year": 2566
    },
    {
        "id": 524,
        "name": "บ่อขยะอบต.แม่จั๊วะ",
        "lat": "17.977985",
        "lng": "100.096759",
        "year": 2566
    },
    {
        "id": 525,
        "name": "บ่อขยะทต.ร้องกวาง",
        "lat": "18.33340",
        "lng": "100.30840",
        "year": 2566
    },
    {
        "id": 526,
        "name": "บ่อขยะทต.บ้านเวียง",
        "lat": "18.247613",
        "lng": "100.27084",
        "year": 2566
    },
    {
        "id": 528,
        "name": "บ่อขยะอบต.แม่ยางตาล+หมู่8",
        "lat": "18.322471",
        "lng": "100.290349",
        "year": 2566
    },
    {
        "id": 529,
        "name": "บ่อขยะอบต.ร้องกวาง",
        "lat": "18.3911179",
        "lng": "100.28738",
        "year": 2566
    },
    {
        "id": 530,
        "name": "บ่อขยะทต.ห้วยอ้อ+หมู่8",
        "lat": "18.060815",
        "lng": "99.824268",
        "year": 2566
    },
    {
        "id": 531,
        "name": "บ่อขยะทต.ห้วยอ้อ+หมู่10",
        "lat": null,
        "lng": null,
        "year": 2566
    },
    {
        "id": 532,
        "name": "บ่อขยะอบต.ต้าผามอก",
        "lat": "18.18830",
        "lng": "99.95460",
        "year": 2566
    },
    {
        "id": 533,
        "name": "บ่อขยะอบต.ปากกาง",
        "lat": "18.059623",
        "lng": "99.823217",
        "year": 2566
    },
    {
        "id": 534,
        "name": "บ่อขยะทต.วังชิ้น",
        "lat": "17.899469",
        "lng": "99.592538",
        "year": 2566
    },
    {
        "id": 535,
        "name": "บ่อขยะอบต.วังชิ้น",
        "lat": "17.89160",
        "lng": "99.62410",
        "year": 2566
    },
    {
        "id": 536,
        "name": "บ่อขยะอบต.แม่เกิ๋ง",
        "lat": "17.92500",
        "lng": "99.61680",
        "year": 2566
    },
    {
        "id": 537,
        "name": "บ่อขยะทต.ห้วยหม้าย",
        "lat": "18.36040",
        "lng": "100.14470",
        "year": 2566
    },
    {
        "id": 539,
        "name": "บ่อขยะอบต.บ้านหนุน",
        "lat": "18.487168",
        "lng": "100.129525",
        "year": 2566
    },
    {
        "id": 540,
        "name": "บ่อขยะอบต.หัวเมือง",
        "lat": "18.291693",
        "lng": "100.19174",
        "year": 2566
    },
    {
        "id": 541,
        "name": "บ่อขยะอบต.เวียงทอง",
        "lat": "18.112621",
        "lng": "100.072947",
        "year": 2566
    },
    {
        "id": 542,
        "name": "บ่อขยะอบต.ตำหนักธรรม",
        "lat": "18.26730",
        "lng": "100.25210",
        "year": 2566
    },
    {
        "id": 543,
        "name": "บ่อขยะอบต.วังหลวง",
        "lat": "18.297459",
        "lng": "100.144401",
        "year": 2566
    },
    {
        "id": 544,
        "name": "บ่อขยะทต.เด่นชัย",
        "lat": "17.996792",
        "lng": "100.047801",
        "year": 2566
    },
    {
        "id": 545,
        "name": "บ่อขยะทต.หนองม่วงไข่",
        "lat": "18.29168",
        "lng": "100.190955",
        "year": 2566
    },
    {
        "id": 552,
        "name": "บ่อขยะทต.ศรีนคร",
        "lat": "17.379057",
        "lng": "99.974591",
        "year": 2566
    },
    {
        "id": 553,
        "name": "บ่อขยะทม.ศรีสัชนาลัย",
        "lat": "17.448481",
        "lng": "99.799281",
        "year": 2566
    },
    {
        "id": 564,
        "name": "บ่อขยะอบต.ท่าโพธิ์",
        "lat": "16.761518",
        "lng": "100.189735",
        "year": 2566
    },
    {
        "id": 566,
        "name": "บ่อขยะทต.ป่าแดง",
        "lat": "17.2637",
        "lng": "100.576232",
        "year": 2566
    },
    {
        "id": 567,
        "name": "บ่อขยะอบต.ท่าสะแก",
        "lat": "17.2416",
        "lng": "100.641278",
        "year": 2566
    },
    {
        "id": 568,
        "name": "บ่อขยะอบต.ป่าแดง",
        "lat": "17.2637",
        "lng": "100.576232",
        "year": 2566
    },
    {
        "id": 569,
        "name": "บ่อขยะทต.บ้านแยง",
        "lat": "16.888406",
        "lng": "100.786504",
        "year": 2566
    },
    {
        "id": 571,
        "name": "บ่อขยะอบต.หนองกะท้าว+หมู่20",
        "lat": "17.0714",
        "lng": "100.748",
        "year": 2566
    },
    {
        "id": 572,
        "name": "บ่อขยะอบต.หนองกะท้าว+หมู่1",
        "lat": "17.0308",
        "lng": "100.868",
        "year": 2566
    },
    {
        "id": 573,
        "name": "บ่อขยะอบต.หนองกะท้าว+หมู่2",
        "lat": "17.0136",
        "lng": "100.8100",
        "year": 2566
    },
    {
        "id": 574,
        "name": "บ่อขยะทต.เนินกุ่ม",
        "lat": "16.5660",
        "lng": "100.4230",
        "year": 2566
    },
    {
        "id": 575,
        "name": "บ่อขยะทต.บางกระทุ่ม",
        "lat": "16.596761",
        "lng": "100.291679",
        "year": 2566
    },
    {
        "id": 576,
        "name": "บ่อขยะอบต.ท่าตาล",
        "lat": "16.6708",
        "lng": "100.3270",
        "year": 2566
    },
    {
        "id": 578,
        "name": "บ่อขยะทต.บางระกำ",
        "lat": "16.742653",
        "lng": "100.110695",
        "year": 2566
    },
    {
        "id": 579,
        "name": "บ่อขยะทต.ปลักแรด",
        "lat": "16.689885",
        "lng": "100.081071",
        "year": 2566
    },
    {
        "id": 580,
        "name": "บ่อขยะทต.พรหมพิราม",
        "lat": "17.0456681",
        "lng": "100.20425",
        "year": 2566
    },
    {
        "id": 581,
        "name": "บ่อขยะทต.วงฆ้อง+หมู่5",
        "lat": "17.11548",
        "lng": "100.20875",
        "year": 2566
    },
    {
        "id": 582,
        "name": "บ่อขยะทต.วงฆ้อง+หมู่9",
        "lat": "17.11548",
        "lng": "100.20875",
        "year": 2566
    },
    {
        "id": 584,
        "name": "บ่อขยะอบต.แก่งโสภา",
        "lat": "16.865487",
        "lng": "100.622727",
        "year": 2566
    },
    {
        "id": 585,
        "name": "บ่อขยะทต.วัดโบสถ์",
        "lat": "16.98184",
        "lng": "100.311793",
        "year": 2566
    },
    {
        "id": 586,
        "name": "สถานที่กำจัดขยะมูลฝอย+ทม.น่าน",
        "lat": "18.8317",
        "lng": "100.7561",
        "year": 2566
    },
    {
        "id": 587,
        "name": "บ่อขยะอบต.บ่อสวก+หมู่1",
        "lat": "18.750701",
        "lng": "100.691743",
        "year": 2566
    },
    {
        "id": 588,
        "name": "บ่อขยะอบต.บ่อสวก+หมู่5",
        "lat": "18.73589",
        "lng": "100.70509",
        "year": 2566
    },
    {
        "id": 589,
        "name": "บ่อขยะอบต.บ่อสวก+หมู่6",
        "lat": "18.730527",
        "lng": "100.684705",
        "year": 2566
    },
    {
        "id": 590,
        "name": "บ่อขยะอบต.บ่อสวก+หมู่7",
        "lat": "18.71434",
        "lng": "100.65389",
        "year": 2566
    },
    {
        "id": 591,
        "name": "บ่อขยะอบต.บ่อสวก+หมู่8",
        "lat": "18.716932",
        "lng": "100.622036",
        "year": 2566
    },
    {
        "id": 592,
        "name": "บ่อขยะอบต.บ่อสวก+หมู่9",
        "lat": "18.716694",
        "lng": "100.649219",
        "year": 2566
    },
    {
        "id": 593,
        "name": "บ่อขยะอบต.บ่อสวก+หมู่10",
        "lat": "18.743593",
        "lng": "100.695513",
        "year": 2566
    },
    {
        "id": 594,
        "name": "บ่อขยะทต.เชียงกลาง+หมู่1",
        "lat": "18.705641",
        "lng": "100.656802",
        "year": 2566
    },
    {
        "id": 595,
        "name": "บ่อขยะทต.พระพุทธบาทเชียงคาน+หมู่1+(บ้านซาววา)",
        "lat": "18.754783",
        "lng": "100.672892",
        "year": 2566
    },
    {
        "id": 596,
        "name": "บ่อขยะทต.พระพุทธบาทเชียงคาน+หมู่2+(บ้านสลี)",
        "lat": "19.279718",
        "lng": "100.847648",
        "year": 2566
    },
    {
        "id": 598,
        "name": "บ่อขยะทต.พระพุทธบาทเชียงคาน+หมู่5+(บ้านไฮหลวง)",
        "lat": "19.279722",
        "lng": "100.847639",
        "year": 2566
    },
    {
        "id": 599,
        "name": "บ่อขยะทต.พระพุทธบาทเชียงคาน+หมู่8+(บ้านเหล่า)",
        "lat": "19.25299",
        "lng": "100.8367238",
        "year": 2566
    },
    {
        "id": 600,
        "name": "บ่อขยะทต.พระพุทธบาทเชียงคาน+หมู่9+(บ้านอ้อ)",
        "lat": "19.24768",
        "lng": "100.8237481",
        "year": 2566
    },
    {
        "id": 601,
        "name": "บ่อขยะทต.กลางเวียง",
        "lat": "18.56277",
        "lng": "100.739152",
        "year": 2566
    },
    {
        "id": 602,
        "name": "บ่อขยะทต.ขึ่ง",
        "lat": "18.528684",
        "lng": "100.785349",
        "year": 2566
    },
    {
        "id": 603,
        "name": "บ่อขยะอบต.น้ำมวบ+หมู่1",
        "lat": "18.55050",
        "lng": "100.92800",
        "year": 2566
    },
    {
        "id": 604,
        "name": "บ่อขยะอบต.ทุ่งศรีทอง+หมู่2",
        "lat": "18.38660",
        "lng": "100.97740",
        "year": 2566
    },
    {
        "id": 605,
        "name": "บ่อขยะทต.หนองแดง+หมู่5",
        "lat": "18.730836",
        "lng": "101.015415",
        "year": 2566
    },
    {
        "id": 606,
        "name": "บ่อขยะทต.หนองแดง+หมู่8",
        "lat": "18.711392",
        "lng": "101.028324",
        "year": 2566
    },
    {
        "id": 607,
        "name": "บ่อขยะทต.ท่าวังผา",
        "lat": "19.111228",
        "lng": "100.834097",
        "year": 2566
    },
    {
        "id": 609,
        "name": "บ่อขยะอบต.จอมพระ+หมู่5",
        "lat": "19.090211",
        "lng": "100.873196",
        "year": 2566
    },
    {
        "id": 610,
        "name": "บ่อขยะอบต.แสนทอง+หมู่3",
        "lat": "19.119081",
        "lng": "100.773053",
        "year": 2566
    },
    {
        "id": 611,
        "name": "บ่อขยะอบต.แสนทอง+หมู่4",
        "lat": "19.157987",
        "lng": "100.75089",
        "year": 2566
    },
    {
        "id": 619,
        "name": "บ่อขยะอบต.สถาน+หมู่1",
        "lat": "18.277564",
        "lng": "100.707225",
        "year": 2566
    },
    {
        "id": 620,
        "name": "บ่อขยะอบต.สถาน+หมู่10",
        "lat": "18.268551",
        "lng": "100.707836",
        "year": 2566
    },
    {
        "id": 621,
        "name": "บ่อขยะอบต.สถาน+หมู่2",
        "lat": "18.27000",
        "lng": "100.698724",
        "year": 2566
    },
    {
        "id": 622,
        "name": "บ่อขยะอบต.สถาน+หมู่9",
        "lat": "18.249106",
        "lng": "100.712998",
        "year": 2566
    },
    {
        "id": 625,
        "name": "บ่อขยะอบต.ปิงหลวง+หมู่5",
        "lat": "18.137848",
        "lng": "100.475554",
        "year": 2566
    },
    {
        "id": 626,
        "name": "บ่อขยะอบต.ปิงหลวง+หมู่4",
        "lat": "18.173812",
        "lng": "100.502993",
        "year": 2566
    },
    {
        "id": 627,
        "name": "บ่อขยะอบต.สกาด+",
        "lat": "19.266211",
        "lng": "100.991464",
        "year": 2566
    },
    {
        "id": 628,
        "name": "บ่อขยะอบต.วรนคร+หมู่3",
        "lat": "19.179845",
        "lng": "100.951892",
        "year": 2566
    },
    {
        "id": 630,
        "name": "บ่อขยะอบต.ชนแดน+หมู่1",
        "lat": "19.49728",
        "lng": "100.6662368",
        "year": 2566
    },
    {
        "id": 631,
        "name": "บ่อขยะอบต.ชนแดน+หมู่2",
        "lat": "19.432612",
        "lng": "100.669273",
        "year": 2566
    },
    {
        "id": 632,
        "name": "บ่อขยะอบต.ชนแดน+หมู่3",
        "lat": "19.440819",
        "lng": "100.675078",
        "year": 2566
    },
    {
        "id": 633,
        "name": "บ่อขยะอบต.ชนแดน+หมู่4",
        "lat": "19.447711",
        "lng": "100.674292",
        "year": 2566
    },
    {
        "id": 634,
        "name": "บ่อขยะอบต.ชนแดน+หมู่5",
        "lat": "19.405789",
        "lng": "100.690849",
        "year": 2566
    },
    {
        "id": 635,
        "name": "บ่อขยะอบต.ชนแดน+หมู่6",
        "lat": "19.42341",
        "lng": "100.67761",
        "year": 2566
    },
    {
        "id": 636,
        "name": "บ่อขยะอบต.นาปัง+หมู่1",
        "lat": "18.71000",
        "lng": "100.764171",
        "year": 2566
    },
    {
        "id": 637,
        "name": "บ่อขยะอบต.นาปัง+หมู่4",
        "lat": "18.692445",
        "lng": "100.801345",
        "year": 2566
    },
    {
        "id": 638,
        "name": "บ่อขยะอบต.นาปัง+หมู่6",
        "lat": "18.703313",
        "lng": "100.806125",
        "year": 2566
    },
    {
        "id": 641,
        "name": "บ่อขยะอบต.ป่าคาหลวง",
        "lat": "18.873008",
        "lng": "100.407157",
        "year": 2566
    },
    {
        "id": 642,
        "name": "บ่อขยะอบต.บ้านพี้+หมู่1",
        "lat": "18.88874",
        "lng": "100.435368",
        "year": 2566
    },
    {
        "id": 643,
        "name": "บ่อขยะอบต.ดู่พงษ์+หมู่1",
        "lat": "18.88710",
        "lng": "100.916889",
        "year": 2566
    },
    {
        "id": 644,
        "name": "บ่อขยะอบต.ดู่พงษ์+หมู่2",
        "lat": "18.91658",
        "lng": "100.9206041",
        "year": 2566
    },
    {
        "id": 645,
        "name": "บ่อขยะอบต.ดู่พงษ์+หมู่4",
        "lat": "18.907767",
        "lng": "100.91178",
        "year": 2566
    },
    {
        "id": 646,
        "name": "บ่อขยะทม.อุตรดิตถ์",
        "lat": "17.616459",
        "lng": "100.21058",
        "year": 2566
    },
    {
        "id": 647,
        "name": "บ่อขยะทต.น้ำริด",
        "lat": "17.737516",
        "lng": "100.100369",
        "year": 2566
    },
    {
        "id": 648,
        "name": "บ่อขยะทต.ท่าเสา",
        "lat": "17.672366",
        "lng": "100.103168",
        "year": 2566
    },
    {
        "id": 649,
        "name": "บ่อขยะทต.บ้านด่านนาขาม",
        "lat": "17.704821",
        "lng": "100.133257",
        "year": 2566
    },
    {
        "id": 650,
        "name": "บ่อขยะทต.วังกระพี้",
        "lat": "17.527786",
        "lng": "100.112267",
        "year": 2566
    },
    {
        "id": 651,
        "name": "บ่อขยะทต.ป่าเซ่า",
        "lat": "17.58632",
        "lng": "100.17779",
        "year": 2566
    },
    {
        "id": 652,
        "name": "บ่อขยะอบต.แสนตอ+หมู่3",
        "lat": "17.697641",
        "lng": "100.626862",
        "year": 2566
    },
    {
        "id": 653,
        "name": "บ่อขยะอบต.น้ำอ่าง",
        "lat": "17.429975",
        "lng": "100.21067",
        "year": 2566
    },
    {
        "id": 654,
        "name": "บ่อขยะอบต.บ้านแก่ง+(บ่อขยะ)",
        "lat": "17.454576",
        "lng": "100.154288",
        "year": 2566
    },
    {
        "id": 655,
        "name": "บ่อขยะทต.ทองแสนขัน",
        "lat": "17.474443",
        "lng": "100.343768",
        "year": 2566
    },
    {
        "id": 657,
        "name": "บ่อขยะอบต.บ่อทอง",
        "lat": "17.43034",
        "lng": "100.345421",
        "year": 2566
    },
    {
        "id": 659,
        "name": "บ่อขยะทต.ท่าปลา",
        "lat": "17.458000",
        "lng": "100.236200",
        "year": 2566
    },
    {
        "id": 661,
        "name": "บ่อขยะทต.น้ำปาด",
        "lat": "17.704571",
        "lng": "100.674297",
        "year": 2566
    },
    {
        "id": 662,
        "name": "บ่อขยะอบต.เด่นเหล็ก+หมู่4",
        "lat": "17.841247",
        "lng": "100.793027",
        "year": 2566
    },
    {
        "id": 663,
        "name": "บ่อขยะอบต.น้ำไคร้+หมู่9",
        "lat": "17.597141",
        "lng": "100.470295",
        "year": 2566
    },
    {
        "id": 664,
        "name": "บ่อขยะอบต.บ้านฝาย+หมู่3",
        "lat": "17.737798",
        "lng": "100.711671",
        "year": 2566
    },
    {
        "id": 666,
        "name": "บ่อขยะอบต.แสนตอ+หมู่2",
        "lat": "17.725657",
        "lng": "100.649007",
        "year": 2566
    },
    {
        "id": 667,
        "name": "บ่อขยะอบต.ห้วยมุ่น+หมู่1",
        "lat": "17.784017",
        "lng": "100.901361",
        "year": 2566
    },
    {
        "id": 668,
        "name": "บ่อขยะอบต.ห้วยมุ่น+หมู่2",
        "lat": "17.80095",
        "lng": "100.91133",
        "year": 2566
    },
    {
        "id": 669,
        "name": "บ่อขยะอบต.ห้วยมุ่น+หมู่5",
        "lat": "17.879234",
        "lng": "100.964193",
        "year": 2566
    },
    {
        "id": 670,
        "name": "บ่อขยะทต.บ้านโคก",
        "lat": "17.80850",
        "lng": "103.00990",
        "year": 2566
    },
    {
        "id": 671,
        "name": "บ่อขยะอบต.นาขุม+หมู่5",
        "lat": "17.9805567",
        "lng": "101.0286141",
        "year": 2566
    },
    {
        "id": 672,
        "name": "บ่อขยะอบต.นาขุม+หมู่2",
        "lat": "18.015929",
        "lng": "101.027588",
        "year": 2566
    },
    {
        "id": 673,
        "name": "บ่อขยะอบต.นาขุม+หมู่+7",
        "lat": "17.909494",
        "lng": "100.97901",
        "year": 2566
    },
    {
        "id": 675,
        "name": "เตาเผาขยะ+ทต.ในเมือง",
        "lat": "17.306488",
        "lng": "100.12012",
        "year": 2566
    },
    {
        "id": 676,
        "name": "เตาเผาขยะ+อบต.คอรุม",
        "lat": "17.284004",
        "lng": "100.06972",
        "year": 2566
    },
    {
        "id": 678,
        "name": "บ่อขยะอบต.พญาแมน",
        "lat": "17.160944",
        "lng": "100.022588",
        "year": 2566
    },
    {
        "id": 680,
        "name": "บ่อขยะอบต.บ้านเสี้ยว",
        "lat": "17.940546",
        "lng": "100.841957",
        "year": 2566
    },
    {
        "id": 681,
        "name": "บ่อขยะอบต.ฟากท่า+หมู่2",
        "lat": "18.038837",
        "lng": "100.88774",
        "year": 2566
    },
    {
        "id": 682,
        "name": "บ่อขยะอบต.สองคอน",
        "lat": "17.997793",
        "lng": "100.852162",
        "year": 2566
    },
    {
        "id": 683,
        "name": "บ่อขยะอบต.สองห้อง",
        "lat": "17.879317",
        "lng": "100.794494",
        "year": 2566
    },
    {
        "id": 684,
        "name": "บ่อขยะทต.ทุ่งยั้ง",
        "lat": "17.611981",
        "lng": "100.013004",
        "year": 2566
    },
    {
        "id": 685,
        "name": "บ่อขยะทต.ศรีพนมมาศ",
        "lat": "17.659966",
        "lng": "100.058308",
        "year": 2566
    },
    {
        "id": 686,
        "name": "บ่อขยะทต.พระเสด็จ",
        "lat": "17.612389",
        "lng": "100.014543",
        "year": 2566
    },
    {
        "id": 687,
        "name": "บ่อขยะอบต.ชัยจุมพล",
        "lat": "17.624804",
        "lng": "99.993848",
        "year": 2566
    },
    {
        "id": 688,
        "name": "บ่อขยะทม.พิจิตร",
        "lat": "16.43863",
        "lng": "100.403907",
        "year": 2566
    },
    {
        "id": 689,
        "name": "บ่อขยะทต.ดงป่าคำ",
        "lat": "16.330057",
        "lng": "100.394801",
        "year": 2566
    },
    {
        "id": 690,
        "name": "บ่อขยะทต.ท่าฬ่อ",
        "lat": "16.516139",
        "lng": "100.340479",
        "year": 2566
    },
    {
        "id": 691,
        "name": "บ่อขยะทต.วังกรด",
        "lat": "16.403526",
        "lng": "100.394752",
        "year": 2566
    },
    {
        "id": 692,
        "name": "บ่อขยะทต.หัวดง",
        "lat": "16.337044",
        "lng": "100.424447",
        "year": 2566
    },
    {
        "id": 693,
        "name": "บ่อขยะอบต.คลองคะเชนทร์",
        "lat": "16.479291",
        "lng": "100.275451",
        "year": 2566
    },
    {
        "id": 694,
        "name": "บ่อขยะอบต.ป่ามะคาบ+หมู่3",
        "lat": "16.515915",
        "lng": "100.390057",
        "year": 2566
    },
    {
        "id": 695,
        "name": "บ่อขยะอบต.ย่านยาว+หมู่10",
        "lat": "16.496269",
        "lng": "100.265857",
        "year": 2566
    },
    {
        "id": 696,
        "name": "บ่อขยะอบต.หัวดง",
        "lat": "16.336289",
        "lng": "100.426463",
        "year": 2566
    },
    {
        "id": 697,
        "name": "บ่อขยะอบต.โรงช้าง",
        "lat": "16.423213",
        "lng": "100.249389",
        "year": 2566
    },
    {
        "id": 698,
        "name": "บ่อขยะทม.ตะพานหิน",
        "lat": "16.127376",
        "lng": "100.266724",
        "year": 2566
    },
    {
        "id": 699,
        "name": "บ่อขยะทม.บางมูลนาก",
        "lat": "16.012055",
        "lng": "100.408682",
        "year": 2566
    },
    {
        "id": 700,
        "name": "บ่อขยะทต.วังตะกู",
        "lat": "16.027045",
        "lng": "100.490829",
        "year": 2566
    },
    {
        "id": 701,
        "name": "บ่อขยะทต.ท่าเสา",
        "lat": "16.002398",
        "lng": "100.207491",
        "year": 2566
    },
    {
        "id": 702,
        "name": "บ่อขยะทต.สากเหล็ก",
        "lat": "16.462278",
        "lng": "100.444483",
        "year": 2566
    },
    {
        "id": 707,
        "name": "บ่อขยะทต.ทับคล้อ",
        "lat": "16.103144",
        "lng": "100.383295",
        "year": 2566
    },
    {
        "id": 708,
        "name": "บ่อขยะอบต.ทับคล้อ",
        "lat": "16.015477",
        "lng": "100.327012",
        "year": 2566
    },
    {
        "id": 710,
        "name": "บ่อขยะทต.กำแพงดิน",
        "lat": "16.584483",
        "lng": "100.22780",
        "year": 2566
    },
    {
        "id": 711,
        "name": "บ่อขยะทต.สามง่าม",
        "lat": "16.504888",
        "lng": "100.102157",
        "year": 2566
    },
    {
        "id": 712,
        "name": "บ่อขยะทน.นครสวรรค์",
        "lat": "15.819683",
        "lng": "100.1262",
        "year": 2566
    },
    {
        "id": 713,
        "name": "บ่อขยะทต.หนองเบน",
        "lat": "15.789459",
        "lng": "100.003822",
        "year": 2566
    },
    {
        "id": 715,
        "name": "บ่อขยะอบต.หนองปลิง",
        "lat": "15.627094",
        "lng": "100.147304",
        "year": 2566
    },
    {
        "id": 716,
        "name": "บ่อขยะทต.เก้าเลี้ยว",
        "lat": "15.878003",
        "lng": "100.087232",
        "year": 2566
    },
    {
        "id": 717,
        "name": "บ่อขยะอบต.แม่เปิน",
        "lat": "15.909162",
        "lng": "99.52861",
        "year": 2566
    },
    {
        "id": 718,
        "name": "บ่อขยะทต.ศาลเจ้าไก่ต่อ",
        "lat": "15.752351",
        "lng": "99.65479",
        "year": 2566
    },
    {
        "id": 719,
        "name": "บ่อขยะอบต.เขาชนกัน",
        "lat": "15.878922",
        "lng": "99.498389",
        "year": 2566
    },
    {
        "id": 720,
        "name": "บ่อขยะอบต.แม่เล่ย์",
        "lat": "15.812958",
        "lng": "99.410696",
        "year": 2566
    },
    {
        "id": 721,
        "name": "บ่อขยะทต.บางประมุง",
        "lat": "15.66329",
        "lng": "100.02261",
        "year": 2566
    },
    {
        "id": 722,
        "name": "บ่อขยะอบต.โกรกพระ",
        "lat": "15.557342",
        "lng": "100.054209",
        "year": 2566
    },
    {
        "id": 724,
        "name": "บ่อขยะอบต.ตะคร้อ",
        "lat": "15.487446",
        "lng": "100.694844",
        "year": 2566
    },
    {
        "id": 725,
        "name": "บ่อขยะทม.ชุมแสง",
        "lat": "15.845222",
        "lng": "100.263184",
        "year": 2566
    },
    {
        "id": 726,
        "name": "บ่อขยะทต.ทับกฤช",
        "lat": "15.794004",
        "lng": "100.271865",
        "year": 2566
    },
    {
        "id": 727,
        "name": "บ่อขยะอบต.ชุมตาบง",
        "lat": "15.624062",
        "lng": "99.542304",
        "year": 2566
    },
    {
        "id": 728,
        "name": "บ่อขยะทต.ท่าตะโก",
        "lat": "15.542061",
        "lng": "100.451179",
        "year": 2566
    },
    {
        "id": 729,
        "name": "บ่อขยะทม.ตาคลี",
        "lat": "15.305558",
        "lng": "100.259762",
        "year": 2566
    },
    {
        "id": 730,
        "name": "บ่อขยะอบต.จันเสน",
        "lat": "15.192595",
        "lng": "100.491987",
        "year": 2566
    },
    {
        "id": 731,
        "name": "บ่อขยะอบต.พนมรอก",
        "lat": "15.700793",
        "lng": "100.45225",
        "year": 2566
    },
    {
        "id": 733,
        "name": "บ่อขยะทต.ท่าน้ำอ้อยม่วงหัก",
        "lat": "15.420259",
        "lng": "100.155815",
        "year": 2566
    },
    {
        "id": 734,
        "name": "บ่อขยะอบต.บางแก้ว",
        "lat": "10.18439",
        "lng": "98.70627",
        "year": 2566
    },
    {
        "id": 735,
        "name": "บ่อขยะทต.พยุหะ",
        "lat": "15.43787",
        "lng": "100.163871",
        "year": 2566
    },
    {
        "id": 736,
        "name": "บ่อขยะอบต.นิคมเขาบ่อแก้ว",
        "lat": "15.467406",
        "lng": "100.239755",
        "year": 2566
    },
    {
        "id": 737,
        "name": "บ่อขยะอบต.เขาทอง",
        "lat": "15.547814",
        "lng": "100.197671",
        "year": 2566
    },
    {
        "id": 738,
        "name": "บ่อขยะอบต.สระทะเล",
        "lat": "15.533898",
        "lng": "100.196864",
        "year": 2566
    },
    {
        "id": 739,
        "name": "บ่อขยะทต.ลาดยาว",
        "lat": "15.700259",
        "lng": "99.73545",
        "year": 2566
    },
    {
        "id": 740,
        "name": "บ่อขยะอบต.วังม้า",
        "lat": "15.648081",
        "lng": "99.859458",
        "year": 2566
    },
    {
        "id": 741,
        "name": "บ่อขยะอบต.วังเมือง",
        "lat": "15.68522",
        "lng": "99.806071",
        "year": 2566
    },
    {
        "id": 742,
        "name": "บ่อขยะอบต.สระแก้ว",
        "lat": "15.792108",
        "lng": "99.822924",
        "year": 2566
    },
    {
        "id": 743,
        "name": "บ่อขยะเอกชน+ทต.หนองบัว",
        "lat": "15.8778",
        "lng": "100.6313",
        "year": 2566
    },
    {
        "id": 744,
        "name": "บ่อขยะทต.วังเจ้า",
        "lat": "16.688806",
        "lng": "99.24707",
        "year": 2566
    },
    {
        "id": 745,
        "name": "บ่อขยะอบต.แม่สลิด+หมู่6",
        "lat": "17.16777",
        "lng": "99.125334",
        "year": 2566
    },
    {
        "id": 746,
        "name": "บ่อขยะอบต.แม่สลิด+หมู่9",
        "lat": "17.226845",
        "lng": "99.255487",
        "year": 2566
    },
    {
        "id": 747,
        "name": "บ่อขยะอบต.เกาะตะเภา+หมู่5",
        "lat": "17.07586",
        "lng": "99.02128",
        "year": 2566
    },
    {
        "id": 748,
        "name": "บ่อขยะอบต.เกาะตะเภา+หมู่7",
        "lat": "17.110127",
        "lng": "99.018735",
        "year": 2566
    },
    {
        "id": 749,
        "name": "บ่อขยะอบต.เกาะตะเภา+หมู่8",
        "lat": "17.122325",
        "lng": "99.049768",
        "year": 2566
    },
    {
        "id": 750,
        "name": "บ่อขยะทต.ทุ่งกระเชาะ",
        "lat": "16.961301",
        "lng": "98.993378",
        "year": 2566
    },
    {
        "id": 751,
        "name": "บ่อขยะอบต.สมอโคน",
        "lat": "17.025175",
        "lng": "99.120616",
        "year": 2566
    },
    {
        "id": 752,
        "name": "บ่อขยะทต.บ้านตาก+(เดิม+อบต.ตากออก)",
        "lat": "17.083584",
        "lng": "99.073819",
        "year": 2566
    },
    {
        "id": 753,
        "name": "บ่อขยะทต.สามเงา",
        "lat": "17.240325",
        "lng": "99.049856",
        "year": 2566
    },
    {
        "id": 754,
        "name": "บ่อขยะอบต.แม่ท้อ",
        "lat": "16.811436",
        "lng": "99.02694",
        "year": 2566
    },
    {
        "id": 755,
        "name": "บ่อขยะอบต.ป่ามะม่วง",
        "lat": "16.866479",
        "lng": "99.077433",
        "year": 2566
    },
    {
        "id": 756,
        "name": "บ่อขยะทม.เมืองตาก",
        "lat": "16.929351",
        "lng": "99.110714",
        "year": 2566
    },
    {
        "id": 757,
        "name": "บ่อขยะทน.แม่สอด",
        "lat": "16.731678",
        "lng": "98.52873",
        "year": 2566
    },
    {
        "id": 758,
        "name": "บ่อขยะทต.แม่ตาว",
        "lat": "16.652739",
        "lng": "98.62247",
        "year": 2566
    },